,City ID,City,Country Code,Latitude,Longitude,Temp Kelvin,Temp C,Temp F,Humidity (RH)%,Cloud% Cover,wind speed (m/s),wind speed (mph),Time stamp
0,2353151,Aba,NG,5.11,7.37,304.15,31.0,88.0,70,75,1.0,2.22,['21 Oct 2020 09:01:15']
1,2352947,Abeokuta,NG,7.15,3.35,306.1,33.0,91.0,55,10,0.63,1.4,['21 Oct 2020 09:01:15']
2,2324433,Abonnema,NG,4.71,6.79,304.15,31.0,88.0,70,75,1.0,2.22,['21 Oct 2020 09:01:15']
3,172515,Abu Samrah,SY,35.3,37.18,302.54,29.0,85.0,16,0,3.32,7.38,['21 Oct 2020 09:01:15']
4,380348,Abū Zabad,SD,12.35,29.25,309.37,36.0,97.0,11,2,4.55,10.11,['21 Oct 2020 09:01:15']
5,3408368,Acaraú,BR,-2.89,-40.12,305.16,32.0,90.0,47,6,7.56,16.8,['21 Oct 2020 09:01:15']
6,2522437,Adeje,ES,28.12,-16.73,296.48,23.0,74.0,57,75,1.5,3.33,['21 Oct 2020 09:01:15']
7,2293428,Adiaké,CI,5.29,-3.3,302.15,29.0,84.0,79,40,5.7,12.67,['21 Oct 2020 09:01:15']
8,2381972,Adrar,MR,20.5,-10.07,307.06,34.0,93.0,13,9,2.18,4.84,['21 Oct 2020 09:01:15']
9,245669,Adré,TD,13.47,22.2,307.69,34.0,94.0,10,51,4.76,10.58,['21 Oct 2020 09:01:15']
10,2561668,Santa Cruz,MA,30.42,-9.6,298.15,25.0,77.0,69,75,5.7,12.67,['21 Oct 2020 09:01:15']
11,2522325,Agüimes,ES,27.91,-15.45,297.23,24.0,75.0,73,75,4.1,9.11,['21 Oct 2020 09:01:15']
12,1651810,Airai,TL,-8.93,125.41,289.36,16.0,61.0,100,30,0.4,0.89,['21 Oct 2020 09:01:15']
13,2235776,Akonolinga,CM,3.77,12.25,298.99,26.0,79.0,83,36,1.29,2.87,['21 Oct 2020 09:01:15']
14,324490,Akşehir,TR,38.36,31.42,290.02,17.0,62.0,56,95,4.71,10.47,['21 Oct 2020 09:01:15']
15,324190,Alanya,TR,36.54,32.0,299.15,26.0,79.0,50,75,2.1,4.67,['21 Oct 2020 09:01:15']
16,5106841,Albany,US,42.6,-73.97,285.22,12.0,54.0,100,90,4.58,10.18,['21 Oct 2020 09:01:15']
17,3407980,Alenquer,BR,-1.94,-54.74,302.15,29.0,84.0,79,20,7.2,16.0,['21 Oct 2020 09:01:15']
18,3183284,Alghero,IT,40.56,8.32,297.36,24.0,76.0,57,41,3.6,8.0,['21 Oct 2020 09:01:15']
19,3407903,Almeirim,BR,-1.52,-52.58,305.95,33.0,91.0,50,76,3.03,6.73,['21 Oct 2020 09:01:15']
20,4036284,Alofi,NU,-19.06,-169.92,296.15,23.0,73.0,88,98,6.7,14.89,['21 Oct 2020 09:01:15']
21,3407882,Altamira,BR,-3.2,-52.21,306.61,33.0,92.0,48,57,2.58,5.73,['21 Oct 2020 09:01:15']
22,245338,Am Timan,TD,11.03,20.28,308.39,35.0,95.0,21,6,2.3,5.11,['21 Oct 2020 09:01:15']
23,3407762,Amapá,BR,1.0,-52.0,306.49,33.0,92.0,44,57,2.48,5.51,['21 Oct 2020 09:01:15']
24,1083724,Ambanja,MG,-13.68,48.45,300.15,27.0,81.0,74,76,11.8,26.22,['21 Oct 2020 09:01:15']
25,3660689,Ambato,EC,-1.25,-78.62,285.34,12.0,54.0,93,75,2.56,5.69,['21 Oct 2020 09:01:15']
26,1082243,Ambilobe,MG,-13.2,49.05,303.2,30.0,86.0,50,76,1.03,2.29,['21 Oct 2020 09:01:15']
27,3899695,Ancud,CL,-41.87,-73.82,283.9,11.0,51.0,61,0,4.1,9.11,['21 Oct 2020 09:01:15']
28,2304548,Anloga,GH,5.79,0.9,304.15,31.0,88.0,70,20,4.6,10.22,['21 Oct 2020 09:01:15']
29,3731095,Aquin,HT,18.28,-73.4,301.57,28.0,83.0,72,23,3.61,8.02,['21 Oct 2020 09:01:15']
30,2460954,Araouane,ML,18.9,-3.53,308.57,36.0,96.0,13,0,4.75,10.56,['21 Oct 2020 09:01:15']
31,3665202,Aripuanã,BR,-9.17,-60.63,305.95,33.0,91.0,47,96,1.99,4.42,['21 Oct 2020 09:01:15']
32,2447513,Arlit,NE,18.74,7.39,311.75,38.0,101.0,8,0,2.81,6.24,['21 Oct 2020 09:01:15']
33,3471451,Arraial do Cabo,BR,-22.97,-42.03,299.15,26.0,79.0,74,40,5.1,11.33,['21 Oct 2020 09:01:15']
34,2521570,Arrecife,ES,28.96,-13.55,299.15,26.0,79.0,65,20,6.7,14.89,['21 Oct 2020 09:01:15']
35,235039,Arua,UG,3.02,30.91,295.45,22.0,72.0,84,100,3.82,8.49,['21 Oct 2020 09:01:15']
36,2537881,Safi,MA,32.3,-9.24,293.72,21.0,69.0,78,100,7.98,17.73,['21 Oct 2020 09:01:15']
37,1278297,Ashoknagar,IN,24.57,77.72,298.73,26.0,78.0,30,1,2.43,5.4,['21 Oct 2020 09:01:15']
38,343292,Āsosa,ET,10.07,34.53,295.31,22.0,72.0,90,32,1.42,3.16,['21 Oct 2020 09:01:15']
39,359792,Aswān,EG,24.09,32.91,311.84,39.0,102.0,8,0,4.09,9.09,['21 Oct 2020 09:01:15']
40,2381334,Atar,MR,20.52,-13.05,308.76,36.0,96.0,16,69,2.8,6.22,['21 Oct 2020 09:01:15']
41,4020109,Atuona,PF,-9.8,-139.03,297.96,25.0,77.0,74,99,7.62,16.93,['21 Oct 2020 09:01:15']
42,4035715,Avarua,CK,-21.21,-159.78,296.15,23.0,73.0,88,99,2.1,4.67,['21 Oct 2020 09:01:15']
43,2303611,Esim,GH,4.87,-2.24,301.22,28.0,83.0,76,26,4.65,10.33,['21 Oct 2020 09:01:15']
44,3512208,Azua,DO,18.45,-70.73,294.62,22.0,71.0,88,40,3.1,6.89,['21 Oct 2020 09:01:15']
45,1185283,Badarganj,BD,25.67,89.05,299.61,27.0,80.0,72,17,2.47,5.49,['21 Oct 2020 09:01:15']
46,1728675,Balabac,PH,7.99,117.06,301.17,28.0,82.0,80,100,6.12,13.6,['21 Oct 2020 09:01:15']
47,1277643,Balāngīr,IN,20.72,83.48,297.55,24.0,76.0,70,46,2.0,4.44,['21 Oct 2020 09:01:15']
48,1106677,Bambous Virieux,MU,-20.34,57.76,298.15,25.0,77.0,69,75,5.7,12.67,['21 Oct 2020 09:01:15']
49,1215498,Bandar,ID,2.05,99.75,297.61,24.0,76.0,93,96,0.68,1.51,['21 Oct 2020 09:01:15']
50,64814,Bandarbeyla,SO,9.49,50.81,301.15,28.0,82.0,68,0,4.62,10.27,['21 Oct 2020 09:01:15']
51,1816890,Baoying,CN,33.23,119.31,293.15,20.0,68.0,99,100,2.2,4.89,['21 Oct 2020 09:01:15']
52,4957320,Bar Harbor,US,44.39,-68.2,282.88,10.0,50.0,87,90,3.1,6.89,['21 Oct 2020 09:01:15']
53,2742416,Barcelos,PT,41.54,-8.62,289.74,17.0,62.0,88,40,8.2,18.22,['21 Oct 2020 09:01:15']
54,80509,Al Bardīyah,LY,31.76,25.09,295.99,23.0,73.0,57,20,7.22,16.04,['21 Oct 2020 09:01:15']
55,3406041,Barroquinha,BR,-3.02,-41.14,309.63,37.0,98.0,32,0,4.06,9.02,['21 Oct 2020 09:01:15']
56,3379507,Bartica,GY,6.4,-58.62,303.15,30.0,86.0,74,40,5.1,11.33,['21 Oct 2020 09:01:15']
57,2032614,Baruun-Urt,MN,46.68,113.28,268.48,-4.0,24.0,76,7,2.74,6.09,['21 Oct 2020 09:01:15']
58,219414,Basoko,CD,1.24,23.62,300.76,28.0,82.0,72,27,2.01,4.47,['21 Oct 2020 09:01:15']
59,2395261,Bassila,BJ,9.01,1.67,305.75,33.0,91.0,43,1,2.63,5.84,['21 Oct 2020 09:01:15']
60,2310046,Bata,GQ,1.86,9.77,298.57,26.0,78.0,79,99,0.92,2.04,['21 Oct 2020 09:01:15']
61,2027044,Batagay,RU,67.63,134.63,259.59,-13.0,8.0,91,100,0.86,1.91,['21 Oct 2020 09:01:15']
62,578732,Batetskiy,RU,58.65,30.3,276.41,3.0,38.0,95,100,3.42,7.6,['21 Oct 2020 09:01:15']
63,3374083,Bathsheba,BB,13.22,-59.52,304.15,31.0,88.0,66,40,5.1,11.33,['21 Oct 2020 09:01:15']
64,3405954,Baturité,BR,-4.33,-38.88,307.22,34.0,93.0,33,30,4.48,9.96,['21 Oct 2020 09:01:15']
65,2303287,Bawku,GH,11.06,-0.24,310.06,37.0,98.0,24,0,2.72,6.04,['21 Oct 2020 09:01:15']
66,3470264,Bebedouro,BR,-20.95,-48.48,299.55,27.0,80.0,64,74,2.96,6.58,['21 Oct 2020 09:01:15']
67,2303258,Bechem,GH,7.09,-2.02,306.02,33.0,91.0,45,45,1.61,3.58,['21 Oct 2020 09:01:15']
68,3128382,Béjar,ES,40.39,-5.76,287.04,14.0,57.0,89,22,4.69,10.42,['21 Oct 2020 09:01:15']
69,3443631,Bella Union,UY,-30.28,-57.6,295.17,22.0,72.0,77,45,6.96,15.47,['21 Oct 2020 09:01:15']
70,1067565,Beloha,MG,-25.17,45.05,303.69,31.0,87.0,33,0,5.49,12.2,['21 Oct 2020 09:01:15']
71,1649150,Bengkulu,ID,-3.8,102.27,298.79,26.0,78.0,86,100,1.45,3.22,['21 Oct 2020 09:01:15']
72,3351663,Benguela,AO,-12.58,13.41,301.15,28.0,82.0,61,20,4.1,9.11,['21 Oct 2020 09:01:15']
73,2234359,Bertoua,CM,4.58,13.68,301.58,28.0,83.0,62,73,1.65,3.67,['21 Oct 2020 09:01:15']
74,2234339,Bétaré Oya,CM,5.6,14.08,303.02,30.0,86.0,51,10,1.91,4.24,['21 Oct 2020 09:01:15']
75,5282297,Bethel,US,41.37,-73.41,289.24,16.0,61.0,100,90,2.1,4.67,['21 Oct 2020 09:01:15']
76,1275841,Bhopal,IN,23.27,77.4,302.15,29.0,84.0,66,20,2.24,4.98,['21 Oct 2020 09:01:15']
77,1637001,Biak,ID,-0.91,122.88,297.96,25.0,77.0,66,44,1.52,3.38,['21 Oct 2020 09:01:15']
78,2446796,Bilma,NE,18.69,12.92,310.28,37.0,99.0,8,0,5.53,12.29,['21 Oct 2020 09:01:15']
79,2472431,Ben Gardane,TN,33.14,11.22,298.57,26.0,78.0,33,0,5.22,11.6,['21 Oct 2020 09:01:15']
80,895057,Binga,ZW,-17.62,27.34,307.8,34.0,94.0,20,0,3.98,8.84,['21 Oct 2020 09:01:15']
81,5586093,Blackfoot,US,43.19,-112.34,281.62,8.0,47.0,57,20,6.7,14.89,['21 Oct 2020 09:01:15']
82,2206939,Bluff,NZ,-46.6,168.33,282.59,9.0,49.0,72,99,1.79,3.98,['21 Oct 2020 09:01:15']
83,3664980,Boa Vista,BR,2.82,-60.67,305.15,32.0,90.0,55,40,4.6,10.22,['21 Oct 2020 09:01:15']
84,218680,Boende,CD,-0.22,20.87,301.25,28.0,83.0,79,93,0.94,2.09,['21 Oct 2020 09:01:15']
85,1724435,Bogo,PH,11.05,124.01,299.73,27.0,80.0,83,48,3.3,7.33,['21 Oct 2020 09:01:15']
86,2422924,Boké,GN,10.94,-14.3,305.92,33.0,91.0,56,99,1.66,3.69,['21 Oct 2020 09:01:15']
87,5905393,Bonavista,CA,48.65,-53.11,287.59,14.0,58.0,84,100,6.26,13.91,['21 Oct 2020 09:01:15']
88,2291136,Bondoukou,CI,8.03,-2.8,305.11,32.0,90.0,54,0,1.09,2.42,['21 Oct 2020 09:01:15']
89,218229,Bongandanga,CD,1.5,21.05,297.92,25.0,77.0,88,100,1.33,2.96,['21 Oct 2020 09:01:15']
90,2409914,Bonthe,SL,7.53,-12.51,301.84,29.0,84.0,74,100,3.18,7.07,['21 Oct 2020 09:01:15']
91,64013,Bosaso,SO,11.28,49.18,304.15,31.0,88.0,79,0,4.1,9.11,['21 Oct 2020 09:01:15']
92,2388036,Bossangoa,CF,6.49,17.46,304.43,31.0,88.0,54,98,1.52,3.38,['21 Oct 2020 09:01:15']
93,2290849,Bouna,CI,9.27,-3.0,307.67,34.0,94.0,34,0,2.29,5.09,['21 Oct 2020 09:01:15']
94,2446466,Bouza,NE,14.42,6.04,310.77,38.0,100.0,8,0,5.2,11.56,['21 Oct 2020 09:01:15']
95,320581,Bozova,TR,37.36,38.53,301.15,28.0,82.0,23,0,1.5,3.33,['21 Oct 2020 09:01:15']
96,2654970,Brae,GB,60.4,-1.35,282.15,9.0,48.0,93,75,13.4,29.78,['21 Oct 2020 09:01:15']
97,1015776,Bredasdorp,ZA,-34.53,20.04,294.15,21.0,70.0,52,0,4.1,9.11,['21 Oct 2020 09:01:15']
98,5908723,Bridgewater,CA,44.38,-64.52,285.93,13.0,55.0,99,100,0.45,1.0,['21 Oct 2020 09:01:15']
99,2654728,Bridlington,GB,54.08,-0.19,288.15,15.0,59.0,87,100,0.5,1.11,['21 Oct 2020 09:01:15']
100,5110365,Broome,US,42.25,-75.83,288.56,16.0,60.0,93,75,4.1,9.11,['21 Oct 2020 09:01:15']
101,2654437,Brynmawr,GB,51.8,-3.18,286.67,13.0,56.0,98,100,0.89,1.98,['21 Oct 2020 09:01:15']
102,2374583,Bubaque,GW,11.28,-15.83,301.16,28.0,82.0,77,99,3.47,7.71,['21 Oct 2020 09:01:15']
103,2278158,Buchanan,LR,5.88,-10.05,303.15,30.0,86.0,74,75,3.1,6.89,['21 Oct 2020 09:01:15']
104,3435910,Buenos Aires,AR,-34.61,-58.38,289.94,17.0,62.0,63,75,9.8,21.78,['21 Oct 2020 09:01:15']
105,3203090,Buje,HR,45.41,13.66,290.8,18.0,64.0,77,20,3.1,6.89,['21 Oct 2020 09:01:15']
106,2173323,Bundaberg,AU,-24.85,152.35,294.8,22.0,71.0,77,40,3.6,8.0,['21 Oct 2020 09:01:15']
107,234178,Bundibugyo,UG,0.74,30.04,298.24,25.0,77.0,74,100,1.32,2.93,['21 Oct 2020 09:01:15']
108,217695,Bunia,CD,1.57,30.25,294.75,22.0,71.0,86,100,2.07,4.6,['21 Oct 2020 09:01:15']
109,107304,Buraidah,SA,26.33,43.98,304.15,31.0,88.0,19,0,3.1,6.89,['21 Oct 2020 09:01:15']
110,2075265,Busselton,AU,-33.65,115.33,285.93,13.0,55.0,60,1,5.71,12.69,['21 Oct 2020 09:01:15']
111,217570,Buta,CD,2.79,24.73,300.93,28.0,82.0,71,100,1.29,2.87,['21 Oct 2020 09:01:15']
112,2110227,Butaritari,KI,3.07,172.79,300.83,28.0,82.0,71,82,2.97,6.6,['21 Oct 2020 09:01:15']
113,3404558,Cabedelo,BR,-6.98,-34.83,302.15,29.0,84.0,74,75,7.2,16.0,['21 Oct 2020 09:01:15']
114,3985710,Cabo San Lucas,MX,22.89,-109.91,295.15,22.0,72.0,56,5,2.6,5.78,['21 Oct 2020 09:01:15']
115,2520645,Cabra,ES,37.47,-4.44,292.04,19.0,66.0,74,100,1.34,2.98,['21 Oct 2020 09:01:15']
116,2374311,Cacheu,GW,12.27,-16.17,306.15,33.0,91.0,66,75,3.1,6.89,['21 Oct 2020 09:01:15']
117,3351380,Caconda,AO,-13.73,15.07,301.57,28.0,83.0,23,98,1.8,4.0,['21 Oct 2020 09:01:15']
118,3687972,Calamar,CO,10.25,-74.91,302.15,29.0,84.0,89,40,1.5,3.33,['21 Oct 2020 09:01:15']
119,2242885,Camabatela,AO,-8.19,15.38,296.67,23.0,74.0,74,66,3.04,6.76,['21 Oct 2020 09:01:15']
120,2270385,Camacha,PT,33.08,-16.33,293.15,20.0,68.0,72,20,6.7,14.89,['21 Oct 2020 09:01:15']
121,3351014,Camacupa,AO,-12.02,17.48,299.44,26.0,79.0,36,95,5.1,11.33,['21 Oct 2020 09:01:15']
122,3945985,Camaná,PE,-16.62,-72.71,292.39,19.0,67.0,62,36,3.75,8.33,['21 Oct 2020 09:01:15']
123,3403687,Camocim,BR,-2.9,-40.84,306.11,33.0,91.0,44,0,5.2,11.56,['21 Oct 2020 09:01:15']
124,3369157,Cape Town,ZA,-33.93,18.42,292.8,19.0,67.0,55,0,7.2,16.0,['21 Oct 2020 09:01:15']
125,3466980,Caravelas,BR,-17.71,-39.25,299.83,27.0,80.0,79,41,3.1,6.89,['21 Oct 2020 09:01:15']
126,2074865,Carnarvon,AU,-24.87,113.63,293.15,20.0,68.0,64,0,10.8,24.0,['21 Oct 2020 09:01:15']
127,3646382,Carupano,VE,10.67,-63.26,302.95,30.0,86.0,70,99,4.17,9.27,['21 Oct 2020 09:01:15']
128,3402648,Carutapera,BR,-1.2,-46.02,304.47,31.0,88.0,56,34,4.88,10.84,['21 Oct 2020 09:01:15']
129,3896281,Casma,CL,-41.01,-73.12,281.64,8.0,47.0,75,75,2.6,5.78,['21 Oct 2020 09:01:15']
130,3402548,Castelo do Piauí,BR,-5.32,-41.55,311.17,38.0,100.0,20,0,3.86,8.58,['21 Oct 2020 09:01:15']
131,3466704,Castro,BR,-24.79,-50.01,296.85,24.0,75.0,61,3,3.34,7.42,['21 Oct 2020 09:01:15']
132,3402429,Caucaia,BR,-3.74,-38.65,301.72,28.0,83.0,66,40,8.2,18.22,['21 Oct 2020 09:01:15']
133,2242001,Caxito,AO,-8.58,13.66,300.15,27.0,81.0,74,20,4.1,9.11,['21 Oct 2020 09:01:15']
134,3382160,Cayenne,GF,4.93,-52.33,305.15,32.0,90.0,59,24,5.1,11.33,['21 Oct 2020 09:01:15']
135,5335650,Ceres,US,37.59,-120.96,285.59,12.0,54.0,93,1,0.98,2.18,['21 Oct 2020 09:01:15']
136,160677,Chake Chake,TZ,-5.25,39.77,301.78,29.0,84.0,62,35,4.36,9.69,['21 Oct 2020 09:01:15']
137,3921355,Challapata,BO,-18.9,-66.77,285.68,13.0,55.0,44,40,3.47,7.71,['21 Oct 2020 09:01:15']
138,3598787,Champerico,GT,14.3,-91.92,293.89,21.0,69.0,94,20,3.0,6.67,['21 Oct 2020 09:01:15']
139,1815456,Changzhou,CN,31.78,119.97,288.34,15.0,59.0,82,91,0.45,1.0,['21 Oct 2020 09:01:15']
140,5919850,Chapais,CA,49.78,-74.85,273.15,0.0,32.0,99,90,6.7,14.89,['21 Oct 2020 09:01:15']
141,920233,Chibombo,ZM,-14.66,28.07,307.17,34.0,93.0,12,1,4.99,11.09,['21 Oct 2020 09:01:15']
142,3698359,Chicama,PE,-7.84,-79.15,290.15,17.0,63.0,88,49,4.6,10.22,['21 Oct 2020 09:01:15']
143,893697,Chinhoyi,ZW,-17.37,30.2,304.69,32.0,89.0,20,42,4.85,10.78,['21 Oct 2020 09:01:15']
144,1048364,Chokwé,MZ,-24.53,32.98,298.94,26.0,78.0,56,42,6.78,15.07,['21 Oct 2020 09:01:15']
145,3443061,Chui,UY,-33.7,-53.46,290.28,17.0,63.0,63,31,6.81,15.13,['21 Oct 2020 09:01:15']
146,3466165,Cidreira,BR,-30.18,-50.21,294.2,21.0,70.0,85,56,6.29,13.98,['21 Oct 2020 09:01:15']
147,3530617,Cintalapa,MX,16.7,-93.73,295.08,22.0,71.0,86,84,1.42,3.16,['21 Oct 2020 09:01:15']
148,4013679,Coahuayana Viejo,MX,18.73,-103.68,296.15,23.0,73.0,83,5,1.16,2.58,['21 Oct 2020 09:01:15']
149,3664539,Coari,BR,-4.08,-63.14,306.29,33.0,92.0,50,82,1.69,3.76,['21 Oct 2020 09:01:15']
150,3576994,Cockburn Town,TC,21.46,-71.14,298.15,25.0,77.0,88,40,4.6,10.22,['21 Oct 2020 09:01:15']
151,2401357,Cocobeach,GA,1.0,9.58,301.15,28.0,82.0,78,40,2.6,5.78,['21 Oct 2020 09:01:15']
152,2171099,Codrington,AU,-38.27,141.97,281.7,8.0,47.0,87,14,2.27,5.04,['21 Oct 2020 09:01:15']
153,3860443,Comodoro Rivadavia,AR,-45.87,-67.5,285.15,12.0,54.0,66,40,4.6,10.22,['21 Oct 2020 09:01:15']
154,1344069,Contai,IN,21.78,87.75,299.48,26.0,79.0,89,99,3.09,6.87,['21 Oct 2020 09:01:15']
155,3893629,Coquimbo,CL,-29.95,-71.34,286.15,13.0,55.0,82,90,1.5,3.33,['21 Oct 2020 09:01:15']
156,3620266,Corn Island,NI,12.17,-83.04,301.31,28.0,83.0,76,89,3.15,7.0,['21 Oct 2020 09:01:15']
157,3409644,Corrente,BR,-3.74,-43.34,308.36,35.0,95.0,33,0,2.52,5.6,['21 Oct 2020 09:01:15']
158,3465329,Coruripe,BR,-10.13,-36.18,302.51,29.0,85.0,60,2,6.11,13.58,['21 Oct 2020 09:01:15']
159,2394819,Cotonou,BJ,6.37,2.42,303.15,30.0,86.0,79,20,6.7,14.89,['21 Oct 2020 09:01:15']
160,3465228,Coxim,BR,-18.51,-54.76,301.09,28.0,82.0,60,100,2.39,5.31,['21 Oct 2020 09:01:15']
161,3465164,Cristalina,BR,-16.77,-47.61,295.47,22.0,72.0,77,66,2.71,6.02,['21 Oct 2020 09:01:15']
162,3401487,Cruz,BR,-2.92,-40.17,306.26,33.0,92.0,42,3,7.12,15.82,['21 Oct 2020 09:01:15']
163,1047660,Cuamba,MZ,-14.8,36.54,305.79,33.0,91.0,23,92,1.75,3.89,['21 Oct 2020 09:01:15']
164,3401148,Cururupu,BR,-1.83,-44.87,303.27,30.0,86.0,59,77,3.85,8.56,['21 Oct 2020 09:01:15']
165,2290609,Dabakala,CI,8.37,-4.43,305.38,32.0,90.0,52,57,1.93,4.29,['21 Oct 2020 09:01:15']
166,2253354,Dakar,SN,14.69,-17.44,305.15,32.0,90.0,66,75,3.1,6.89,['21 Oct 2020 09:01:15']
167,2446267,Dakoro,NE,14.51,6.76,310.92,38.0,100.0,8,0,5.83,12.96,['21 Oct 2020 09:01:15']
168,2169535,Dalby,AU,-27.18,151.27,290.93,18.0,64.0,93,100,0.45,1.0,['21 Oct 2020 09:01:15']
169,2632287,Dalvik,IS,65.97,-18.53,274.15,1.0,34.0,80,75,1.5,3.33,['21 Oct 2020 09:01:15']
170,2387435,Damara,CF,4.96,18.7,300.67,28.0,82.0,77,100,0.81,1.8,['21 Oct 2020 09:01:15']
171,2367164,Dapaong,TG,10.86,0.2,307.93,35.0,95.0,31,0,2.52,5.6,['21 Oct 2020 09:01:15']
172,2345096,Daura,NG,11.55,11.41,309.4,36.0,97.0,12,46,4.12,9.16,['21 Oct 2020 09:01:15']
173,1789289,Dayong,CN,25.02,118.29,298.15,25.0,77.0,69,75,5.0,11.11,['21 Oct 2020 09:01:15']
174,217389,Demba,CD,-5.51,22.27,302.26,29.0,84.0,57,94,2.13,4.73,['21 Oct 2020 09:01:15']
175,1524606,Derzhavīnsk,KZ,51.1,66.32,278.83,6.0,42.0,66,100,8.87,19.71,['21 Oct 2020 09:01:15']
176,2361373,Diapaga,BF,12.07,1.79,311.5,38.0,101.0,17,2,1.53,3.4,['21 Oct 2020 09:01:15']
177,2445704,Diffa,NE,13.32,12.61,311.03,38.0,100.0,8,0,7.06,15.69,['21 Oct 2020 09:01:15']
178,1714733,Dingle,PH,11.0,122.67,298.06,25.0,77.0,90,10,3.28,7.29,['21 Oct 2020 09:01:15']
179,2458589,Djenné,ML,13.91,-4.55,311.82,39.0,102.0,11,0,3.45,7.67,['21 Oct 2020 09:01:15']
180,2361177,Djibo,BF,14.1,-1.63,311.5,38.0,101.0,12,0,1.09,2.42,['21 Oct 2020 09:01:15']
181,5067114,Douglas,US,41.3,-96.17,276.3,3.0,38.0,93,1,1.5,3.33,['21 Oct 2020 09:01:15']
182,2024848,Drovyanaya,RU,51.58,113.03,269.15,-4.0,25.0,62,10,2.0,4.44,['21 Oct 2020 09:01:15']
183,3201047,Dubrovnik,HR,42.65,18.09,293.15,20.0,68.0,45,100,3.1,6.89,['21 Oct 2020 09:01:15']
184,2344245,Dutse,NG,11.76,9.34,308.94,36.0,96.0,13,98,5.43,12.07,['21 Oct 2020 09:01:15']
185,1272140,Dwārka,IN,22.24,68.97,302.04,29.0,84.0,75,23,5.72,12.71,['21 Oct 2020 09:01:15']
186,1006984,East London,ZA,-33.02,27.91,295.15,22.0,72.0,60,0,8.7,19.33,['21 Oct 2020 09:01:15']
187,198636,Eldama Ravine,KE,0.05,35.73,297.15,24.0,75.0,41,40,5.1,11.33,['21 Oct 2020 09:01:15']
188,609924,Emba,KZ,48.83,58.14,280.23,7.0,45.0,55,98,4.94,10.98,['21 Oct 2020 09:01:15']
189,233508,Entebbe,UG,0.06,32.45,299.15,26.0,79.0,65,20,4.6,10.22,['21 Oct 2020 09:01:15']
190,315468,Ergani,TR,38.27,39.76,299.1,26.0,79.0,36,0,2.1,4.67,['21 Oct 2020 09:01:15']
191,2308994,Evinayong,GQ,1.44,10.55,296.53,23.0,74.0,78,92,0.7,1.56,['21 Oct 2020 09:01:15']
192,2260009,Ewo,CG,-0.87,14.82,300.02,27.0,80.0,71,69,3.22,7.16,['21 Oct 2020 09:01:15']
193,60019,Eyl,SO,7.98,49.82,302.95,30.0,86.0,63,15,6.88,15.29,['21 Oct 2020 09:01:15']
194,4034551,Faanui,PF,-16.48,-151.75,298.66,26.0,78.0,78,0,5.98,13.29,['21 Oct 2020 09:01:15']
195,1065158,Farafangana,MG,-22.82,47.83,297.28,24.0,75.0,71,0,4.98,11.07,['21 Oct 2020 09:01:15']
196,4034496,Fare,PF,-16.7,-151.02,298.98,26.0,78.0,78,7,4.83,10.73,['21 Oct 2020 09:01:15']
197,110690,Faya,SA,18.39,42.45,299.15,26.0,79.0,9,0,6.7,14.89,['21 Oct 2020 09:01:15']
198,337712,Finote Selam,ET,10.7,37.27,293.13,20.0,68.0,84,44,0.93,2.07,['21 Oct 2020 09:01:15']
199,3176923,Fiumicino,IT,41.77,12.23,293.48,21.0,69.0,60,0,4.6,10.22,['21 Oct 2020 09:01:15']
200,6323121,Florianópolis,BR,-27.61,-48.5,299.29,26.0,79.0,61,0,6.7,14.89,['21 Oct 2020 09:01:15']
201,5563839,Fortuna,US,40.6,-124.16,282.64,9.0,49.0,100,90,2.6,5.78,['21 Oct 2020 09:01:15']
202,2037335,Fuyu,CN,45.18,124.82,277.6,4.0,40.0,62,0,4.98,11.07,['21 Oct 2020 09:01:15']
203,1246294,Galle,LK,6.04,80.22,300.01,27.0,80.0,83,11,5.35,11.89,['21 Oct 2020 09:01:15']
204,239300,Gambo,CF,4.65,22.26,300.1,27.0,81.0,70,100,1.13,2.51,['21 Oct 2020 09:01:15']
205,2386756,Gamboula,CF,4.12,15.14,301.14,28.0,82.0,65,21,1.71,3.8,['21 Oct 2020 09:01:15']
206,2577162,Gaoua,BF,10.3,-3.25,308.54,36.0,96.0,30,3,1.96,4.36,['21 Oct 2020 09:01:15']
207,293842,Kiryat Gat,IL,31.61,34.76,299.82,27.0,80.0,66,0,7.37,16.38,['21 Oct 2020 09:01:15']
208,2360541,Gayéri,BF,12.65,0.49,310.85,38.0,100.0,20,26,3.02,6.71,['21 Oct 2020 09:01:15']
209,2315728,Gemena,CD,3.25,19.77,301.52,28.0,83.0,63,91,1.78,3.96,['21 Oct 2020 09:01:15']
210,3176217,Provincia di Genova,IT,44.5,9.07,287.26,14.0,57.0,72,75,7.7,17.11,['21 Oct 2020 09:01:15']
211,1002145,George,ZA,-33.96,22.46,294.15,21.0,70.0,56,0,4.1,9.11,['21 Oct 2020 09:01:15']
212,1735106,George Town,MY,5.41,100.34,302.09,29.0,84.0,79,20,2.6,5.78,['21 Oct 2020 09:01:15']
213,2070998,Geraldton,AU,-28.77,114.6,292.15,19.0,66.0,72,40,5.7,12.67,['21 Oct 2020 09:01:15']
214,336454,Ginir,ET,7.13,40.7,291.74,18.0,65.0,79,55,1.21,2.69,['21 Oct 2020 09:01:15']
215,336350,Goba,ET,7.02,39.98,286.32,13.0,56.0,86,80,2.32,5.16,['21 Oct 2020 09:01:15']
216,3357247,Gobabis,NA,-22.45,18.97,308.82,36.0,96.0,9,99,4.56,10.13,['21 Oct 2020 09:01:15']
217,5962442,Goderich,CA,43.75,-81.72,285.79,13.0,55.0,88,100,7.33,16.29,['21 Oct 2020 09:01:15']
218,216281,Goma,CD,-1.68,29.22,294.43,21.0,70.0,73,98,0.6,1.33,['21 Oct 2020 09:01:15']
219,934479,Grand Gaube,MU,-20.01,57.66,298.15,25.0,77.0,68,26,4.47,9.93,['21 Oct 2020 09:01:15']
220,2288105,Grand-Lahou,CI,5.14,-5.02,301.52,28.0,83.0,71,94,3.42,7.6,['21 Oct 2020 09:01:15']
221,3381538,Grand-Santi,GF,4.25,-54.38,306.62,33.0,92.0,44,2,2.42,5.38,['21 Oct 2020 09:01:15']
222,3416888,Grindavik,IS,63.84,-22.43,277.15,4.0,39.0,86,90,8.7,19.33,['21 Oct 2020 09:01:15']
223,3357114,Grootfontein,NA,-19.57,18.12,309.79,37.0,98.0,8,72,5.04,11.2,['21 Oct 2020 09:01:15']
224,3461943,Guapó,BR,-16.83,-49.53,300.15,27.0,81.0,57,75,2.6,5.78,['21 Oct 2020 09:01:15']
225,4021858,Guerrero Negro,MX,27.98,-114.06,293.48,21.0,69.0,87,95,4.21,9.36,['21 Oct 2020 09:01:15']
226,2339937,Gusau,NG,12.16,6.66,309.03,36.0,97.0,14,2,4.81,10.69,['21 Oct 2020 09:01:15']
227,5354943,Half Moon Bay,US,37.46,-122.43,287.24,14.0,57.0,87,1,0.62,1.38,['21 Oct 2020 09:01:15']
228,1270466,Halvad,IN,23.02,71.18,304.08,31.0,88.0,58,66,2.74,6.09,['21 Oct 2020 09:01:15']
229,1244926,Hambantota,LK,6.12,81.12,303.15,30.0,86.0,70,40,5.1,11.33,['21 Oct 2020 09:01:15']
230,1529484,Kumul,CN,42.8,93.45,285.88,13.0,55.0,34,0,2.79,6.2,['21 Oct 2020 09:01:15']
231,57289,Hargeisa,SO,9.56,44.06,300.82,28.0,82.0,20,89,6.86,15.24,['21 Oct 2020 09:01:15']
232,2276492,Harper,LR,4.38,-7.72,300.76,28.0,82.0,75,67,3.92,8.71,['21 Oct 2020 09:01:15']
233,2112802,Hasaki,JP,35.73,140.83,287.11,14.0,57.0,100,75,6.7,14.89,['21 Oct 2020 09:01:15']
234,1176997,Haveli Lakha,PK,30.45,73.7,298.5,26.0,78.0,17,0,3.21,7.13,['21 Oct 2020 09:01:15']
235,4470244,Havelock,US,34.88,-76.9,294.4,21.0,70.0,88,40,2.6,5.78,['21 Oct 2020 09:01:15']
236,3356832,Henties Bay,NA,-22.12,14.28,289.82,17.0,62.0,81,12,0.89,1.98,['21 Oct 2020 09:01:15']
237,3366880,Hermanus,ZA,-34.42,19.23,293.15,20.0,68.0,63,0,2.68,5.96,['21 Oct 2020 09:01:15']
238,5855927,Hilo,US,19.73,-155.09,293.78,21.0,69.0,68,1,3.6,8.0,['21 Oct 2020 09:01:15']
239,1282256,Hithadhoo,MV,-0.6,73.08,301.46,28.0,83.0,77,27,6.56,14.58,['21 Oct 2020 09:01:15']
240,2163355,Hobart,AU,-42.88,147.33,284.14,11.0,52.0,87,90,3.1,6.89,['21 Oct 2020 09:01:15']
241,57000,Hobyo,SO,5.35,48.53,300.86,28.0,82.0,77,0,6.63,14.73,['21 Oct 2020 09:01:15']
242,2630299,Hofn,IS,64.25,-15.21,276.15,3.0,37.0,64,20,1.5,3.33,['21 Oct 2020 09:01:15']
243,1269943,Hosdurga,IN,13.8,76.29,295.03,22.0,71.0,87,100,2.02,4.49,['21 Oct 2020 09:01:15']
244,3939761,Hualmay,PE,-11.1,-77.61,293.93,21.0,69.0,65,3,3.86,8.58,['21 Oct 2020 09:01:15']
245,3398428,Humberto de Campos,BR,-2.6,-43.46,305.76,33.0,91.0,48,54,4.18,9.29,['21 Oct 2020 09:01:15']
246,2629833,Husavik,IS,66.04,-17.34,274.15,1.0,34.0,80,75,1.5,3.33,['21 Oct 2020 09:01:15']
247,3680656,Ibagué,CO,4.44,-75.23,294.03,21.0,70.0,72,100,0.6,1.33,['21 Oct 2020 09:01:15']
248,2594800,Idenao,CM,4.25,9.0,301.04,28.0,82.0,69,50,3.31,7.36,['21 Oct 2020 09:01:15']
249,1505965,Igrim,RU,63.19,64.42,271.81,-1.0,30.0,97,80,1.43,3.18,['21 Oct 2020 09:01:15']
250,215976,Ilebo,CD,-4.32,20.58,305.09,32.0,89.0,51,89,1.14,2.53,['21 Oct 2020 09:01:15']
251,2326168,Ilesha,NG,7.14,5.26,305.14,32.0,90.0,49,74,1.6,3.56,['21 Oct 2020 09:01:15']
252,3461408,Ilhéus,BR,-14.79,-39.05,300.98,28.0,82.0,61,3,3.77,8.38,['21 Oct 2020 09:01:15']
253,3423146,Ilulissat,GL,69.22,-51.1,273.15,0.0,32.0,94,75,5.7,12.67,['21 Oct 2020 09:01:15']
254,3461370,Imbituba,BR,-28.24,-48.67,299.15,26.0,79.0,61,5,6.7,14.89,['21 Oct 2020 09:01:15']
255,2259655,Impfondo,CG,1.64,18.07,298.59,26.0,78.0,83,98,0.56,1.24,['21 Oct 2020 09:01:15']
256,3461214,Inhapim,BR,-19.55,-42.12,294.94,22.0,71.0,84,97,1.16,2.58,['21 Oct 2020 09:01:15']
257,3408424,Ipixuna,BR,-1.76,-48.8,303.15,30.0,86.0,70,75,5.1,11.33,['21 Oct 2020 09:01:15']
258,5983720,Iqaluit,CA,63.75,-68.51,273.15,0.0,32.0,93,90,2.6,5.78,['21 Oct 2020 09:01:15']
259,3696183,Iquitos,PE,-3.75,-73.25,296.15,23.0,73.0,94,90,2.1,4.67,['21 Oct 2020 09:01:15']
260,3381428,Iracoubo,GF,5.48,-53.2,303.42,30.0,86.0,66,2,5.3,11.78,['21 Oct 2020 09:01:15']
261,159071,Iringa,TZ,-7.77,35.7,303.15,30.0,86.0,23,20,8.2,18.22,['21 Oct 2020 09:01:15']
262,1710519,Isabela,PH,6.71,121.97,299.15,26.0,79.0,94,90,1.0,2.22,['21 Oct 2020 09:01:15']
263,3526756,Isla Mujeres,MX,21.23,-86.73,298.93,26.0,78.0,94,40,0.96,2.13,['21 Oct 2020 09:01:15']
264,3460791,Itanhaém,BR,-24.18,-46.79,297.8,24.0,76.0,73,75,4.6,10.22,['21 Oct 2020 09:01:15']
265,3460629,Itaqui,BR,-29.13,-56.55,296.82,24.0,75.0,69,76,6.84,15.2,['21 Oct 2020 09:01:15']
266,3393692,Itarema,BR,-2.92,-39.92,304.92,32.0,89.0,49,6,7.5,16.67,['21 Oct 2020 09:01:15']
267,4004293,Ixtapa,MX,20.7,-105.2,299.49,26.0,79.0,94,5,2.1,4.67,['21 Oct 2020 09:01:15']
268,3460355,Jaciara,BR,-15.97,-54.97,308.95,36.0,96.0,40,87,0.73,1.62,['21 Oct 2020 09:01:15']
269,2216432,Jadu,LY,31.95,12.03,297.93,25.0,77.0,20,0,2.89,6.42,['21 Oct 2020 09:01:15']
270,86049,Jalu,LY,29.03,21.55,299.67,27.0,80.0,27,0,5.25,11.67,['21 Oct 2020 09:01:15']
271,56399,Jamame,SO,0.07,42.75,301.68,28.0,83.0,66,0,6.07,13.49,['21 Oct 2020 09:01:15']
272,5122534,Jamestown,US,42.1,-79.24,289.44,16.0,61.0,93,90,4.1,9.11,['21 Oct 2020 09:01:15']
273,1642773,Japura,ID,-0.32,102.35,298.39,25.0,77.0,91,86,0.42,0.93,['21 Oct 2020 09:01:15']
274,3459922,Jeremoabo,BR,-10.07,-38.48,306.82,34.0,93.0,29,0,5.38,11.96,['21 Oct 2020 09:01:15']
275,4003938,Jiménez,MX,28.33,-105.4,293.29,20.0,68.0,47,0,2.52,5.6,['21 Oct 2020 09:01:15']
276,1805733,Jinchang,CN,38.5,102.17,283.55,11.0,51.0,38,0,3.09,6.87,['21 Oct 2020 09:01:15']
277,3459785,João Pinheiro,BR,-17.74,-46.17,297.16,24.0,75.0,70,97,2.47,5.49,['21 Oct 2020 09:01:15']
278,158684,Kabanga,TZ,-2.64,30.47,295.41,22.0,72.0,74,99,3.66,8.13,['21 Oct 2020 09:01:15']
279,2023350,Kabansk,RU,52.05,106.65,272.15,-1.0,30.0,80,40,1.0,2.22,['21 Oct 2020 09:01:15']
280,233019,Kaberamaido,UG,1.74,33.16,297.72,24.0,76.0,77,29,2.12,4.71,['21 Oct 2020 09:01:15']
281,2335727,Kaduna,NG,10.52,7.44,306.54,33.0,92.0,25,31,3.28,7.29,['21 Oct 2020 09:01:15']
282,373141,Kaduqli,SD,11.02,29.72,307.4,34.0,94.0,33,92,0.96,2.13,['21 Oct 2020 09:01:15']
283,5847411,Kahului,US,20.89,-156.47,294.63,22.0,71.0,68,1,1.73,3.84,['21 Oct 2020 09:01:15']
284,1610468,Kalasin,TH,16.5,103.5,296.15,23.0,73.0,83,100,2.1,4.67,['21 Oct 2020 09:01:15']
285,214974,Kalemie,CD,-5.95,29.19,300.09,27.0,80.0,61,98,0.82,1.82,['21 Oct 2020 09:01:15']
286,158514,Kaliua,TZ,-5.06,31.79,304.8,32.0,89.0,29,87,2.39,5.31,['21 Oct 2020 09:01:15']
287,1242110,Kalmunai,LK,7.42,81.82,301.61,28.0,83.0,77,21,1.93,4.29,['21 Oct 2020 09:01:15']
288,553766,Kamenka,RU,51.32,42.77,278.71,6.0,42.0,59,100,3.78,8.4,['21 Oct 2020 09:01:15']
289,2094746,Kandrian,PG,-6.22,149.55,298.64,26.0,78.0,80,99,1.81,4.02,['21 Oct 2020 09:01:15']
290,194406,Kangundo,KE,-1.3,37.35,298.73,26.0,78.0,44,75,7.2,16.0,['21 Oct 2020 09:01:15']
291,214389,Kaniama,CD,-7.57,24.18,299.53,26.0,79.0,75,65,1.64,3.64,['21 Oct 2020 09:01:15']
292,913613,Kansanshi,ZM,-12.1,26.43,302.37,29.0,85.0,28,81,1.66,3.69,['21 Oct 2020 09:01:15']
293,1630058,Karaton,ID,-6.34,106.1,298.94,26.0,78.0,88,75,3.6,8.0,['21 Oct 2020 09:01:15']
294,6620339,Karratha,AU,-20.74,116.85,294.61,22.0,71.0,73,0,7.99,17.76,['21 Oct 2020 09:01:15']
295,2315057,Kasangulu,CD,-4.59,15.17,299.54,27.0,80.0,74,99,1.85,4.11,['21 Oct 2020 09:01:15']
296,2315026,Kasongo-Lunda,CD,-6.47,16.82,300.97,28.0,82.0,79,65,1.45,3.22,['21 Oct 2020 09:01:15']
297,2287298,Katiola,CI,8.13,-5.1,304.15,31.0,88.0,58,40,3.1,6.89,['21 Oct 2020 09:01:15']
298,2112309,Katsuura,JP,35.13,140.3,289.9,17.0,62.0,72,75,6.2,13.78,['21 Oct 2020 09:01:15']
299,1267390,Kavaratti,IN,10.57,72.64,300.61,27.0,81.0,75,98,5.86,13.02,['21 Oct 2020 09:01:15']
300,2094342,Kavieng,PG,-2.57,150.8,299.12,26.0,79.0,85,100,3.47,7.71,['21 Oct 2020 09:01:15']
301,1640344,Kendari,ID,-3.94,122.5,298.17,25.0,77.0,82,1,0.94,2.09,['21 Oct 2020 09:01:15']
302,1734098,Keningau,MY,5.34,116.16,301.02,28.0,82.0,83,20,4.6,10.22,['21 Oct 2020 09:01:15']
303,550775,Khamamatyurt,RU,43.61,46.5,289.15,16.0,61.0,48,40,3.0,6.67,['21 Oct 2020 09:01:15']
304,1503796,Khandagayty,RU,50.73,92.05,270.3,-3.0,27.0,92,64,1.13,2.51,['21 Oct 2020 09:01:15']
305,1283217,Khanbari,NP,27.37,87.2,292.63,19.0,67.0,72,10,0.92,2.04,['21 Oct 2020 09:01:15']
306,1266838,Khātra,IN,22.98,86.85,299.37,26.0,79.0,79,39,2.07,4.6,['21 Oct 2020 09:01:15']
307,3356213,Khorixas,NA,-20.37,14.97,305.45,32.0,90.0,16,0,12.15,27.0,['21 Oct 2020 09:01:15']
308,2455290,Kidal,ML,18.44,1.41,311.71,38.0,101.0,8,0,3.98,8.84,['21 Oct 2020 09:01:15']
309,2094027,Kieta,PG,-6.22,155.63,299.44,26.0,79.0,77,0,1.46,3.24,['21 Oct 2020 09:01:15']
310,2314705,Kikwit,CD,-5.04,18.82,301.39,28.0,83.0,75,79,1.62,3.6,['21 Oct 2020 09:01:15']
311,157429,Kilindoni,TZ,-7.91,39.67,300.31,27.0,81.0,70,0,3.92,8.71,['21 Oct 2020 09:01:15']
312,2419533,Kindia,GN,10.06,-12.87,303.13,30.0,86.0,61,60,1.34,2.98,['21 Oct 2020 09:01:15']
313,212902,Kindu,CD,-2.95,25.95,303.66,31.0,87.0,54,94,1.23,2.73,['21 Oct 2020 09:01:15']
314,2645198,Kirkwall,GB,58.98,-2.96,283.15,10.0,50.0,93,75,12.9,28.67,['21 Oct 2020 09:01:15']
315,157014,Kisanga,TZ,-7.44,37.7,306.58,33.0,92.0,31,0,2.9,6.44,['21 Oct 2020 09:01:15']
316,212730,Kisangani,CD,0.52,25.2,300.08,27.0,80.0,88,89,1.59,3.53,['21 Oct 2020 09:01:15']
317,156974,Kisesa,TZ,-3.08,34.15,303.64,31.0,87.0,27,67,3.25,7.22,['21 Oct 2020 09:01:15']
318,2334327,Kisi,NG,9.08,3.85,306.61,33.0,92.0,36,46,2.06,4.58,['21 Oct 2020 09:01:15']
319,2618795,Klaksvík,FO,62.23,-6.59,279.15,6.0,43.0,75,16,3.1,6.89,['21 Oct 2020 09:01:15']
320,5866583,Saint Paul Harbor,US,57.79,-152.41,275.15,2.0,36.0,69,1,3.6,8.0,['21 Oct 2020 09:01:15']
321,1217180,Kogon,UZ,39.72,64.55,294.15,21.0,70.0,19,24,1.0,2.22,['21 Oct 2020 09:01:15']
322,988290,Komatipoort,ZA,-25.43,31.95,299.82,27.0,80.0,52,100,1.34,2.98,['21 Oct 2020 09:01:15']
323,2286304,Korhogo,CI,9.45,-5.63,306.43,33.0,92.0,39,90,2.67,5.93,['21 Oct 2020 09:01:15']
324,544084,Koslan,RU,63.46,48.9,271.27,-2.0,29.0,95,100,4.14,9.2,['21 Oct 2020 09:01:15']
325,2229798,Kousséri,CM,12.08,15.03,312.15,39.0,102.0,14,0,5.7,12.67,['21 Oct 2020 09:01:15']
326,2365560,Palimé,TG,6.9,0.63,304.83,32.0,89.0,55,0,1.81,4.02,['21 Oct 2020 09:01:15']
327,986717,Kruisfontein,ZA,-34.0,24.73,295.93,23.0,73.0,47,0,3.58,7.96,['21 Oct 2020 09:01:15']
328,1337607,Kudahuvadhoo,MV,2.67,72.89,301.47,28.0,83.0,78,89,5.89,13.09,['21 Oct 2020 09:01:15']
329,1337613,Kulhudhuffushi,MV,6.62,73.07,301.13,28.0,82.0,78,6,5.2,11.56,['21 Oct 2020 09:01:15']
330,305681,Kumluca,TR,36.37,30.29,295.34,22.0,72.0,58,70,1.71,3.8,['21 Oct 2020 09:01:15']
331,1521762,Kurchum,KZ,48.57,83.65,284.08,11.0,52.0,40,0,5.41,12.02,['21 Oct 2020 09:01:15']
332,371745,Kutum,SD,14.2,24.67,305.18,32.0,90.0,11,0,5.89,13.09,['21 Oct 2020 09:01:15']
333,2429344,Kyabé,TD,9.45,18.94,307.21,34.0,93.0,34,89,1.18,2.62,['21 Oct 2020 09:01:15']
334,5364022,La Palma,US,33.85,-118.05,291.37,18.0,65.0,88,90,2.1,4.67,['21 Oct 2020 09:01:15']
335,3678000,La Primavera,CO,5.49,-70.41,299.85,27.0,80.0,86,100,1.08,2.4,['21 Oct 2020 09:01:15']
336,3336897,La Rioja,ES,42.25,-2.5,295.74,23.0,73.0,40,40,9.8,21.78,['21 Oct 2020 09:01:15']
337,6050066,La Ronge,CA,55.1,-105.28,268.15,-5.0,23.0,79,90,2.1,4.67,['21 Oct 2020 09:01:15']
338,2229681,Lagdo,CM,9.05,13.73,309.8,37.0,98.0,23,0,1.8,4.0,['21 Oct 2020 09:01:15']
339,2332453,Lagos,NG,6.58,3.75,303.73,31.0,87.0,66,43,3.37,7.49,['21 Oct 2020 09:01:15']
340,3007679,Arrondissement de Langres,FR,47.83,5.33,294.99,22.0,71.0,49,4,10.3,22.89,['21 Oct 2020 09:01:15']
341,1265053,Lar,IN,26.2,83.97,299.84,27.0,80.0,57,0,1.32,2.93,['21 Oct 2020 09:01:15']
342,408689,Lárdos,GR,36.09,28.02,293.23,20.0,68.0,88,20,1.5,3.33,['21 Oct 2020 09:01:15']
343,3883457,Lebu,CL,-37.62,-73.65,284.71,12.0,53.0,67,0,6.81,15.13,['21 Oct 2020 09:01:15']
344,3676661,Leiva,CO,1.93,-77.3,293.92,21.0,69.0,88,99,0.65,1.44,['21 Oct 2020 09:01:15']
345,2358382,Léo,BF,11.1,-2.1,308.96,36.0,96.0,30,0,0.87,1.93,['21 Oct 2020 09:01:15']
346,371466,Leer,SS,8.3,30.14,305.5,32.0,90.0,55,74,0.64,1.42,['21 Oct 2020 09:01:15']
347,3728097,Les Cayes,HT,18.2,-73.75,301.7,28.0,83.0,73,33,3.98,8.84,['21 Oct 2020 09:01:15']
348,1214658,Lhokseumawe,ID,5.18,97.15,300.73,28.0,82.0,79,59,2.32,5.16,['21 Oct 2020 09:01:15']
349,457955,Liepāja,LV,56.54,21.04,285.15,12.0,54.0,87,100,4.1,9.11,['21 Oct 2020 09:01:15']
350,704204,Lyman,UA,48.99,37.8,283.75,11.0,51.0,51,100,2.59,5.76,['21 Oct 2020 09:01:15']
351,878281,Lindi,TZ,-10.0,39.72,304.15,31.0,88.0,52,20,4.1,9.11,['21 Oct 2020 09:01:15']
352,189367,Litein,KE,-0.58,35.19,292.33,19.0,67.0,85,100,1.21,2.69,['21 Oct 2020 09:01:15']
353,2644210,Liverpool,GB,53.41,-2.98,286.49,13.0,56.0,87,75,5.1,11.33,['21 Oct 2020 09:01:15']
354,155921,Liwale,TZ,-9.77,37.93,305.91,33.0,91.0,26,64,2.67,5.93,['21 Oct 2020 09:01:15']
355,2258378,Loandjili,CG,-4.76,11.86,300.7,28.0,82.0,73,97,3.84,8.53,['21 Oct 2020 09:01:15']
356,211647,Lodja,CD,-3.48,23.43,303.45,31.0,87.0,53,82,1.33,2.96,['21 Oct 2020 09:01:15']
357,5367788,Lompoc,US,34.64,-120.46,285.11,12.0,54.0,100,90,0.91,2.02,['21 Oct 2020 09:01:15']
358,1171868,Loralai,PK,30.37,68.6,290.67,18.0,64.0,21,0,2.35,5.22,['21 Oct 2020 09:01:15']
359,2092164,Lorengau,PG,-2.02,147.27,300.76,28.0,82.0,75,97,2.07,4.6,['21 Oct 2020 09:01:15']
360,2514651,Los Llanos de Aridane,ES,28.66,-17.92,293.69,21.0,69.0,64,40,1.0,2.22,['21 Oct 2020 09:01:15']
361,533964,Loukhi,RU,66.08,33.04,270.87,-2.0,28.0,98,0,0.28,0.62,['21 Oct 2020 09:01:15']
362,2240449,Luanda,AO,-8.84,13.23,300.15,27.0,81.0,74,20,4.1,9.11,['21 Oct 2020 09:01:15']
363,2309528,Luba,GQ,3.46,8.55,299.26,26.0,79.0,81,31,2.92,6.49,['21 Oct 2020 09:01:15']
364,3347762,Lubango,AO,-14.92,13.49,299.94,27.0,80.0,33,61,5.26,11.69,['21 Oct 2020 09:01:15']
365,922704,Lubumbashi,CD,-11.66,27.48,299.92,27.0,80.0,40,86,2.15,4.78,['21 Oct 2020 09:01:15']
366,3355672,Lüderitz,NA,-26.65,15.16,299.65,27.0,80.0,24,0,9.62,21.38,['21 Oct 2020 09:01:15']
367,1521293,Lugovoy,KZ,42.95,72.76,287.21,14.0,57.0,31,0,1.42,3.16,['21 Oct 2020 09:01:15']
368,3430988,Luján,AR,-34.57,-59.1,290.12,17.0,63.0,68,0,3.58,7.96,['21 Oct 2020 09:01:15']
369,2997116,Lunel,FR,43.68,4.14,291.77,19.0,66.0,77,90,12.3,27.33,['21 Oct 2020 09:01:15']
370,3654541,Macas,EC,-2.32,-78.12,292.15,19.0,66.0,93,90,1.0,2.22,['21 Oct 2020 09:01:15']
371,3395981,Maceió,BR,-9.67,-35.74,302.15,29.0,84.0,58,75,5.7,12.67,['21 Oct 2020 09:01:15']
372,2441482,Magaria,NE,13.0,8.91,310.87,38.0,100.0,9,0,4.38,9.73,['21 Oct 2020 09:01:15']
373,155285,Mahanje,TZ,-9.93,35.33,301.38,28.0,83.0,40,92,3.33,7.4,['21 Oct 2020 09:01:15']
374,1062553,Mahanoro,MG,-19.9,48.8,297.58,24.0,76.0,64,0,2.34,5.2,['21 Oct 2020 09:01:15']
375,934322,Mahébourg,MU,-20.41,57.7,298.15,25.0,77.0,69,75,5.7,12.67,['21 Oct 2020 09:01:15']
376,5850554,Makakilo City,US,21.35,-158.09,296.44,23.0,74.0,88,1,1.5,3.33,['21 Oct 2020 09:01:15']
377,3935572,Mala,PE,-12.66,-76.63,294.23,21.0,70.0,61,3,3.8,8.44,['21 Oct 2020 09:01:15']
378,3441890,Departamento de Maldonado,UY,-34.67,-54.92,288.64,16.0,60.0,63,20,6.2,13.78,['21 Oct 2020 09:01:15']
379,3146487,Måløy,NO,61.94,5.11,280.39,7.0,45.0,93,75,6.64,14.76,['21 Oct 2020 09:01:15']
380,3381041,Mana,GF,5.66,-53.78,304.05,31.0,88.0,61,0,4.69,10.42,['21 Oct 2020 09:01:15']
381,1263968,Manali,IN,13.17,80.27,301.15,28.0,82.0,83,40,4.16,9.24,['21 Oct 2020 09:01:15']
382,3663517,Manaus,BR,-3.1,-60.02,301.15,28.0,82.0,78,75,1.5,3.33,['21 Oct 2020 09:01:15']
383,93709,Mandalī,IQ,33.75,45.55,304.46,31.0,88.0,13,0,4.08,9.07,['21 Oct 2020 09:01:15']
384,187896,Mandera,KE,3.94,41.87,308.42,35.0,95.0,30,79,1.51,3.36,['21 Oct 2020 09:01:15']
385,3457952,Manhuaçu,BR,-20.26,-42.03,297.71,24.0,76.0,69,84,1.87,4.16,['21 Oct 2020 09:01:15']
386,3663503,Manicoré,BR,-5.81,-61.3,307.92,35.0,95.0,46,100,1.27,2.82,['21 Oct 2020 09:01:15']
387,1636308,Manokwari,ID,-0.87,134.08,299.88,27.0,80.0,77,100,1.41,3.13,['21 Oct 2020 09:01:15']
388,209598,Manono,CD,-7.3,27.42,302.94,30.0,86.0,53,7,1.69,3.76,['21 Oct 2020 09:01:15']
389,2514301,Mahon,ES,39.89,4.27,296.15,23.0,73.0,69,40,7.2,16.0,['21 Oct 2020 09:01:15']
390,3430863,Mar del Plata,AR,-38.0,-57.56,286.15,13.0,55.0,66,0,7.7,17.11,['21 Oct 2020 09:01:15']
391,370510,Marabba,SD,12.35,32.18,310.2,37.0,99.0,22,54,2.24,4.98,['21 Oct 2020 09:01:15']
392,3395458,Maragogi,BR,-9.01,-35.22,301.4,28.0,83.0,67,0,5.85,13.0,['21 Oct 2020 09:01:15']
393,1701054,Marawi,PH,8.0,124.29,299.82,27.0,80.0,88,100,0.45,1.0,['21 Oct 2020 09:01:15']
394,529368,Marfino,RU,55.7,37.38,275.48,2.0,36.0,93,90,3.0,6.67,['21 Oct 2020 09:01:15']
395,2643044,Margate,GB,51.38,1.39,289.11,16.0,61.0,89,99,1.79,3.98,['21 Oct 2020 09:01:15']
396,2542997,Marrakesh,MA,31.63,-8.01,296.15,23.0,73.0,60,75,1.5,3.33,['21 Oct 2020 09:01:15']
397,352733,Marsá Maţrūḩ,EG,31.35,27.25,297.37,24.0,76.0,55,87,5.96,13.24,['21 Oct 2020 09:01:15']
398,3571913,Marsh Harbour,BS,26.54,-77.06,300.3,27.0,81.0,75,100,9.47,21.04,['21 Oct 2020 09:01:15']
399,1636022,Martapura,ID,-3.42,114.85,299.15,26.0,79.0,88,100,2.6,5.78,['21 Oct 2020 09:01:15']
400,72181,Marzuq,YE,14.4,46.47,302.16,29.0,84.0,18,27,4.08,9.07,['21 Oct 2020 09:01:15']
401,2428228,Massakory,TD,13.0,15.73,312.01,39.0,102.0,8,0,6.19,13.76,['21 Oct 2020 09:01:15']
402,886763,Masvingo,ZW,-20.06,30.83,297.24,24.0,75.0,57,41,5.87,13.04,['21 Oct 2020 09:01:15']
403,1235846,Matara,LK,5.95,80.54,299.57,27.0,80.0,84,14,4.91,10.91,['21 Oct 2020 09:01:15']
404,6201424,Mataura,NZ,-46.19,168.86,282.59,9.0,49.0,72,92,2.24,4.98,['21 Oct 2020 09:01:15']
405,3778045,Maturin,VE,9.75,-63.18,302.31,29.0,84.0,72,90,2.81,6.24,['21 Oct 2020 09:01:15']
406,3457381,Mauá,BR,-23.67,-46.46,296.26,23.0,74.0,73,75,4.6,10.22,['21 Oct 2020 09:01:15']
407,933366,Maun,BW,-19.98,23.42,312.15,39.0,102.0,8,0,5.7,12.67,['21 Oct 2020 09:01:15']
408,2399001,Mayumba,GA,-3.43,10.66,299.59,27.0,80.0,80,49,4.39,9.76,['21 Oct 2020 09:01:15']
409,3395042,Mazagão,BR,-0.12,-51.29,306.15,33.0,91.0,66,75,5.1,11.33,['21 Oct 2020 09:01:15']
410,2228079,Mbalmayo,CM,3.52,11.5,298.54,26.0,78.0,88,53,1.83,4.07,['21 Oct 2020 09:01:15']
411,2312895,Mbandaka,CD,0.05,18.26,300.27,27.0,81.0,67,37,1.62,3.6,['21 Oct 2020 09:01:15']
412,2308278,Mbini,GQ,1.57,9.61,298.64,26.0,78.0,79,100,0.91,2.02,['21 Oct 2020 09:01:15']
413,2488835,Médéa,DZ,36.26,2.75,303.15,30.0,86.0,17,40,5.7,12.67,['21 Oct 2020 09:01:15']
414,2227230,Melong,CM,5.12,9.96,298.08,25.0,77.0,83,22,1.06,2.36,['21 Oct 2020 09:01:15']
415,3347353,Menongue,AO,-14.66,17.69,309.72,37.0,98.0,9,89,2.23,4.96,['21 Oct 2020 09:01:15']
416,1635283,Metro,ID,-5.11,105.31,299.15,26.0,79.0,85,75,1.9,4.22,['21 Oct 2020 09:01:15']
417,1214488,Meulaboh,ID,4.14,96.13,300.1,27.0,81.0,79,100,1.93,4.29,['21 Oct 2020 09:01:15']
418,527012,Mikhaylovka,RU,50.06,43.24,280.93,8.0,46.0,49,100,4.47,9.93,['21 Oct 2020 09:01:15']
419,3374462,Mindelo,CV,16.89,-24.98,306.15,33.0,91.0,52,100,9.8,21.78,['21 Oct 2020 09:01:15']
420,2019951,Mirny,RU,62.54,113.96,265.15,-8.0,18.0,85,75,4.0,8.89,['21 Oct 2020 09:01:15']
421,1498633,Mishkino,RU,55.34,63.92,275.57,2.0,36.0,81,13,3.24,7.2,['21 Oct 2020 09:01:15']
422,921786,Mitsamiouli,KM,-11.38,43.28,300.48,27.0,81.0,75,31,4.1,9.11,['21 Oct 2020 09:01:15']
423,2214827,Mizdah,LY,31.45,12.98,297.27,24.0,75.0,27,0,4.29,9.53,['21 Oct 2020 09:01:15']
424,1024312,Mocuba,MZ,-16.84,36.99,307.32,34.0,94.0,26,89,5.53,12.29,['21 Oct 2020 09:01:15']
425,53654,Mogadishu,SO,2.04,45.34,302.15,29.0,84.0,66,40,7.2,16.0,['21 Oct 2020 09:01:15']
426,2427637,Mongo,TD,12.18,18.69,310.24,37.0,99.0,11,62,4.43,9.84,['21 Oct 2020 09:01:15']
427,2274895,Monrovia,LR,6.3,-10.8,303.15,30.0,86.0,74,75,3.1,6.89,['21 Oct 2020 09:01:15']
428,6078372,Moose Factory,CA,51.26,-80.61,273.15,0.0,32.0,98,90,3.1,6.89,['21 Oct 2020 09:01:15']
429,2991771,Arrondissement de Morlaix,FR,48.58,-4.0,288.15,15.0,59.0,87,90,6.2,13.78,['21 Oct 2020 09:01:15']
430,3394372,Morros,BR,-9.45,-46.3,309.46,36.0,97.0,17,17,3.87,8.6,['21 Oct 2020 09:01:15']
431,2156643,Mount Gambier,AU,-37.83,140.77,281.15,8.0,46.0,93,16,2.6,5.78,['21 Oct 2020 09:01:15']
432,2297810,Mumford,GH,5.26,-0.76,301.03,28.0,82.0,75,8,5.9,13.11,['21 Oct 2020 09:01:15']
433,3674166,Murillo,CO,4.87,-75.17,293.15,20.0,68.0,82,40,2.6,5.78,['21 Oct 2020 09:01:15']
434,3115824,Muros,ES,42.78,-9.06,289.51,16.0,61.0,82,66,5.81,12.91,['21 Oct 2020 09:01:15']
435,2312249,Mushie,CD,-3.02,16.9,301.89,29.0,84.0,75,57,2.36,5.24,['21 Oct 2020 09:01:15']
436,207596,Mweka,CD,-4.85,21.57,303.59,31.0,87.0,52,72,1.57,3.49,['21 Oct 2020 09:01:15']
437,1634614,Nabire,ID,-3.37,135.48,297.88,25.0,77.0,87,99,1.86,4.13,['21 Oct 2020 09:01:15']
438,2541479,Nador,MA,35.17,-2.93,295.61,22.0,72.0,78,100,2.6,5.78,['21 Oct 2020 09:01:15']
439,3496021,Nagua,DO,19.38,-69.85,299.15,26.0,79.0,88,40,2.1,4.67,['21 Oct 2020 09:01:15']
440,2214432,Nālūt,LY,30.33,10.85,303.32,30.0,86.0,24,0,4.75,10.56,['21 Oct 2020 09:01:15']
441,3347019,Mossamedes,AO,-15.2,12.15,295.14,22.0,72.0,78,87,4.79,10.64,['21 Oct 2020 09:01:15']
442,3421765,Nanortalik,GL,60.14,-45.24,274.08,1.0,34.0,89,100,4.19,9.31,['21 Oct 2020 09:01:15']
443,4944903,Nantucket,US,41.28,-70.1,290.15,17.0,63.0,100,90,2.6,5.78,['21 Oct 2020 09:01:15']
444,1855612,Nara,JP,34.69,135.8,290.92,18.0,64.0,55,83,3.47,7.71,['21 Oct 2020 09:01:15']
445,3703946,Narganá,PA,9.44,-78.59,300.84,28.0,82.0,77,31,3.42,7.6,['21 Oct 2020 09:01:15']
446,3421719,Narsaq,GL,60.92,-46.05,273.15,0.0,32.0,90,75,2.1,4.67,['21 Oct 2020 09:01:15']
447,3394023,Natal,BR,-5.79,-35.21,299.15,26.0,79.0,88,75,3.1,6.89,['21 Oct 2020 09:01:15']
448,6541509,Negrar,IT,45.53,10.94,286.13,13.0,55.0,67,71,2.1,4.67,['21 Oct 2020 09:01:15']
449,4032420,Neiafu,TO,-18.65,-173.98,297.15,24.0,75.0,78,90,2.6,5.78,['21 Oct 2020 09:01:15']
450,2155562,Nelson Bay,AU,-32.72,152.15,289.8,17.0,62.0,77,40,3.6,8.0,['21 Oct 2020 09:01:15']
451,2155415,New Norfolk,AU,-42.78,147.06,283.19,10.0,50.0,79,25,0.98,2.18,['21 Oct 2020 09:01:15']
452,2641519,Newtownards,GB,54.59,-5.69,286.82,14.0,57.0,71,51,5.7,12.67,['21 Oct 2020 09:01:15']
453,3393929,Nhamundá,BR,-2.19,-56.71,308.59,36.0,96.0,39,6,3.44,7.64,['21 Oct 2020 09:01:15']
454,2064735,Nhulunbuy,AU,-12.23,136.77,300.15,27.0,81.0,78,0,2.6,5.78,['21 Oct 2020 09:01:15']
455,546105,Nikolskoye,RU,59.7,30.79,275.63,2.0,36.0,86,90,4.0,8.89,['21 Oct 2020 09:01:15']
456,2412408,Nioro,GM,13.35,-15.75,308.37,35.0,95.0,34,100,1.76,3.91,['21 Oct 2020 09:01:15']
457,1855342,Nishihara,JP,26.18,127.76,298.42,25.0,77.0,100,90,7.66,17.02,['21 Oct 2020 09:01:15']
458,924732,Nkhata Bay,MW,-11.61,34.29,303.91,31.0,87.0,41,0,2.03,4.51,['21 Oct 2020 09:01:15']
459,6541905,Nola,IT,40.92,14.53,293.19,20.0,68.0,52,20,2.6,5.78,['21 Oct 2020 09:01:15']
460,6089245,Norman Wells,CA,65.28,-126.83,268.15,-5.0,23.0,85,90,8.2,18.22,['21 Oct 2020 09:01:15']
461,2641434,Northam,GB,51.03,-4.22,287.6,14.0,58.0,95,100,4.02,8.93,['21 Oct 2020 09:01:15']
462,2364752,Notsé,TG,6.95,1.17,305.65,32.0,90.0,53,0,1.86,4.13,['21 Oct 2020 09:01:15']
463,2377457,Nouadhibou,MR,20.93,-17.03,305.15,32.0,90.0,38,0,5.7,12.67,['21 Oct 2020 09:01:15']
464,2377450,Nouakchott,MR,18.09,-15.98,312.15,39.0,102.0,13,7,6.2,13.78,['21 Oct 2020 09:01:15']
465,3456070,Novo Cruzeiro,BR,-17.47,-41.88,296.33,23.0,74.0,74,96,1.29,2.87,['21 Oct 2020 09:01:15']
466,698861,Novyy Svit,UA,47.81,38.02,284.57,12.0,53.0,43,100,1.94,4.31,['21 Oct 2020 09:01:15']
467,3655185,Nueva Loja,EC,0.08,-76.88,296.15,23.0,73.0,100,90,2.6,5.78,['21 Oct 2020 09:01:15']
468,1168749,Nushki,PK,29.55,66.02,286.89,14.0,57.0,38,0,0.64,1.42,['21 Oct 2020 09:01:15']
469,3421319,Nuuk,GL,64.18,-51.72,272.65,-1.0,31.0,92,40,2.6,5.78,['21 Oct 2020 09:01:15']
470,53372,Oodweyne,SO,9.41,45.06,303.9,31.0,87.0,18,100,2.62,5.82,['21 Oct 2020 09:01:15']
471,3373652,Oistins,BB,13.07,-59.53,304.15,31.0,88.0,66,40,5.1,11.33,['21 Oct 2020 09:01:15']
472,3354898,Okahandja,NA,-21.98,16.92,306.81,34.0,93.0,9,99,3.1,6.89,['21 Oct 2020 09:01:15']
473,2122614,Okha,RU,53.57,142.95,280.15,7.0,45.0,85,100,4.87,10.82,['21 Oct 2020 09:01:15']
474,515879,Oktyabr'skiy,RU,54.48,53.47,274.6,2.0,35.0,82,99,6.27,13.93,['21 Oct 2020 09:01:15']
475,3414079,Olafsvik,IS,64.89,-23.71,278.35,5.0,41.0,92,100,9.91,22.02,['21 Oct 2020 09:01:15']
476,3393536,Olinda,BR,-8.01,-34.86,302.15,29.0,84.0,70,75,6.7,14.89,['21 Oct 2020 09:01:15']
477,2396853,Omboué,GA,-1.57,9.26,300.64,27.0,81.0,71,94,4.69,10.42,['21 Oct 2020 09:01:15']
478,3354077,Opuwo,NA,-18.06,13.84,309.12,36.0,97.0,9,2,7.71,17.13,['21 Oct 2020 09:01:15']
479,3354071,Oranjemund,NA,-28.55,16.43,295.74,23.0,73.0,36,0,12.49,27.76,['21 Oct 2020 09:01:15']
480,3393471,Oriximiná,BR,-1.77,-55.87,306.25,33.0,92.0,47,73,2.35,5.22,['21 Oct 2020 09:01:15']
481,556268,Ostrovnoy,RU,68.05,39.51,274.43,1.0,34.0,89,100,3.16,7.02,['21 Oct 2020 09:01:15']
482,933184,Otse,BW,-25.02,25.73,303.15,30.0,86.0,25,0,7.7,17.11,['21 Oct 2020 09:01:15']
483,236844,Ouango,CF,4.31,22.56,301.16,28.0,82.0,65,82,1.5,3.33,['21 Oct 2020 09:01:15']
484,2255564,Ouésso,CG,1.61,16.05,299.61,27.0,80.0,85,97,1.55,3.44,['21 Oct 2020 09:01:15']
485,2255542,Owando,CG,-0.48,15.9,302.53,29.0,85.0,60,82,2.44,5.42,['21 Oct 2020 09:01:15']
486,5380420,Pacifica,US,37.61,-122.49,286.87,14.0,57.0,76,1,1.5,3.33,['21 Oct 2020 09:01:15']
487,1633419,Padang,ID,-0.95,100.35,298.53,26.0,78.0,84,100,2.25,5.0,['21 Oct 2020 09:01:15']
488,3455580,Padre Bernardo,BR,-15.35,-48.5,298.42,25.0,77.0,67,99,0.72,1.6,['21 Oct 2020 09:01:15']
489,1633070,Palembang,ID,-2.92,104.75,301.15,28.0,82.0,78,75,3.1,6.89,['21 Oct 2020 09:01:15']
490,3521972,Panabá,MX,21.28,-88.27,299.54,27.0,80.0,85,0,0.55,1.22,['21 Oct 2020 09:01:15']
491,1632694,Pangkalanbuun,ID,-2.68,111.62,298.28,25.0,77.0,92,100,0.59,1.31,['21 Oct 2020 09:01:15']
492,3455168,Paracatu,BR,-17.22,-46.87,297.27,24.0,75.0,73,94,2.86,6.36,['21 Oct 2020 09:01:15']
493,3393095,Paraibano,BR,-6.43,-43.98,309.87,37.0,98.0,26,1,2.75,6.11,['21 Oct 2020 09:01:15']
494,3622547,Paraíso,CR,9.84,-83.87,291.69,18.0,65.0,93,75,1.0,2.22,['21 Oct 2020 09:01:15']
495,3841956,Paraná,AR,-31.73,-60.52,290.93,18.0,64.0,72,92,0.89,1.98,['21 Oct 2020 09:01:15']
496,3454968,Paripiranga,BR,-10.69,-37.86,304.91,32.0,89.0,38,0,5.96,13.24,['21 Oct 2020 09:01:15']
497,1168312,Pasni,PK,25.26,63.47,302.9,30.0,86.0,30,0,6.84,15.2,['21 Oct 2020 09:01:15']
498,3392368,Penalva,BR,-3.29,-45.17,307.21,34.0,93.0,45,2,2.88,6.4,['21 Oct 2020 09:01:15']
499,1214191,Perbaungan,ID,3.57,98.96,301.15,28.0,82.0,94,40,1.97,4.38,['21 Oct 2020 09:01:15']
500,2063523,Perth,AU,-31.93,115.83,291.1,18.0,64.0,63,0,6.2,13.78,['21 Oct 2020 09:01:15']
501,3392251,Pesqueira,BR,-8.36,-36.7,304.75,32.0,89.0,36,17,6.37,14.16,['21 Oct 2020 09:01:15']
502,3454005,Piaçabuçu,BR,-10.41,-36.43,302.14,29.0,84.0,61,1,5.54,12.31,['21 Oct 2020 09:01:15']
503,5767918,Pierre,US,44.37,-100.35,273.54,1.0,33.0,89,90,2.6,5.78,['21 Oct 2020 09:01:15']
504,2324857,Pindiga,NG,9.98,10.93,307.15,34.0,93.0,46,20,2.0,4.44,['21 Oct 2020 09:01:15']
505,3932145,Pisco,PE,-13.7,-76.22,291.06,18.0,64.0,77,40,1.5,3.33,['21 Oct 2020 09:01:15']
506,2987002,Arrondissement de Pithiviers,FR,48.17,2.25,294.24,21.0,70.0,60,75,9.8,21.78,['21 Oct 2020 09:01:15']
507,3391889,Pitimbu,BR,-7.47,-34.81,302.15,29.0,84.0,74,75,7.2,16.0,['21 Oct 2020 09:01:15']
508,964712,Plettenberg Bay,ZA,-34.05,23.37,291.51,18.0,65.0,60,0,4.24,9.42,['21 Oct 2020 09:01:15']
509,2264557,Ponta do Sol,PT,32.67,-17.1,295.15,22.0,72.0,56,40,3.1,6.89,['21 Oct 2020 09:01:15']
510,3453060,Pontes e Lacerda,BR,-15.23,-59.34,310.87,38.0,100.0,35,13,0.63,1.4,['21 Oct 2020 09:01:15']
511,964432,Port Alfred,ZA,-33.59,26.89,293.76,21.0,69.0,58,0,7.75,17.22,['21 Oct 2020 09:01:15']
512,3489005,Port Antonio,JM,18.18,-76.46,300.17,27.0,81.0,78,20,2.1,4.67,['21 Oct 2020 09:01:15']
513,1259385,Port Blair,IN,11.67,92.75,300.49,27.0,81.0,82,79,4.88,10.84,['21 Oct 2020 09:01:15']
514,964420,Port Elizabeth,ZA,-33.92,25.57,294.15,21.0,70.0,56,0,6.7,14.89,['21 Oct 2020 09:01:15']
515,2063042,Port Hedland,AU,-20.32,118.57,296.15,23.0,73.0,83,0,5.1,11.33,['21 Oct 2020 09:01:15']
516,2063039,Port Keats,AU,-14.25,129.55,301.83,29.0,84.0,70,1,4.23,9.4,['21 Oct 2020 09:01:15']
517,964406,Port Shepstone,ZA,-30.74,30.45,293.67,21.0,69.0,72,98,7.81,17.36,['21 Oct 2020 09:01:15']
518,2396518,Port-Gentil,GA,-0.72,8.78,303.15,30.0,86.0,70,40,5.1,11.33,['21 Oct 2020 09:01:15']
519,6541341,Porto Empedocle,IT,37.29,13.53,293.71,21.0,69.0,69,47,2.68,5.96,['21 Oct 2020 09:01:15']
520,2392087,Porto-Novo,BJ,6.5,2.6,303.15,30.0,86.0,79,20,6.7,14.89,['21 Oct 2020 09:01:15']
521,3170075,Porto Recanati,IT,43.44,13.66,293.17,20.0,68.0,37,0,2.24,4.98,['21 Oct 2020 09:01:15']
522,8010683,Porto Santo,PT,33.07,-16.34,293.15,20.0,68.0,72,20,6.7,14.89,['21 Oct 2020 09:01:15']
523,3452599,Posse,BR,-14.09,-46.37,303.29,30.0,86.0,45,20,2.4,5.33,['21 Oct 2020 09:01:15']
524,3374333,Praia,CV,14.92,-23.51,304.15,31.0,88.0,66,0,8.2,18.22,['21 Oct 2020 09:01:15']
525,3391287,Prainha,BR,-1.8,-53.48,306.45,33.0,92.0,47,94,2.8,6.22,['21 Oct 2020 09:01:15']
526,5435464,Pueblo,US,38.25,-104.61,274.15,1.0,34.0,69,1,1.5,3.33,['21 Oct 2020 09:01:15']
527,4007676,Pueblo Nuevo,MX,23.38,-105.38,286.97,14.0,57.0,66,0,2.93,6.51,['21 Oct 2020 09:01:15']
528,3652764,Puerto Ayora,EC,-0.74,-90.35,292.59,19.0,67.0,95,90,4.92,10.93,['21 Oct 2020 09:01:15']
529,3617154,Puerto Cabezas,NI,14.04,-83.39,299.86,27.0,80.0,82,100,2.74,6.09,['21 Oct 2020 09:01:15']
530,3520994,Puerto Escondido,MX,15.85,-97.07,296.15,23.0,73.0,88,40,3.6,8.0,['21 Oct 2020 09:01:15']
531,3931470,Puerto Maldonado,PE,-12.6,-69.18,298.15,25.0,77.0,94,75,1.5,3.33,['21 Oct 2020 09:01:15']
532,1698289,Pundaguitan,PH,6.37,126.17,301.59,28.0,83.0,80,99,5.54,12.31,['21 Oct 2020 09:01:15']
533,3874787,Punta Arenas,CL,-53.15,-70.92,278.93,6.0,42.0,60,90,6.2,13.78,['21 Oct 2020 09:01:15']
534,1259184,Puri,IN,19.8,85.85,299.15,26.0,79.0,100,75,3.1,6.89,['21 Oct 2020 09:01:15']
535,53157,Qandala,SO,11.47,49.87,303.1,30.0,86.0,43,0,1.58,3.51,['21 Oct 2020 09:01:15']
536,3420846,Qaqortoq,GL,60.72,-46.03,273.15,0.0,32.0,95,75,2.1,4.67,['21 Oct 2020 09:01:15']
537,2538474,Rabat,MA,33.99,-6.84,295.08,22.0,71.0,56,75,2.6,5.78,['21 Oct 2020 09:01:15']
538,1629974,Rantepao,ID,-2.97,119.9,292.95,20.0,68.0,88,1,0.79,1.76,['21 Oct 2020 09:01:15']
539,3839307,Rawson,AR,-43.3,-65.1,289.8,17.0,62.0,41,92,9.7,21.56,['21 Oct 2020 09:01:15']
540,2511930,Requena,ES,39.49,-1.1,296.51,23.0,74.0,33,100,2.68,5.96,['21 Oct 2020 09:01:15']
541,2222439,Rey Bouba,CM,8.67,14.18,308.93,36.0,96.0,29,75,1.22,2.71,['21 Oct 2020 09:01:15']
542,3906478,Reyes,BO,-14.32,-67.38,298.55,26.0,78.0,88,75,0.15,0.33,['21 Oct 2020 09:01:15']
543,2263905,Ribeira Brava,PT,32.65,-17.07,295.15,22.0,72.0,56,40,3.1,6.89,['21 Oct 2020 09:01:15']
544,3372707,Ribeira Grande,PT,38.52,-28.7,293.15,20.0,68.0,56,40,4.6,10.22,['21 Oct 2020 09:01:15']
545,962367,Richards Bay,ZA,-28.78,32.04,295.1,22.0,72.0,65,1,3.16,7.02,['21 Oct 2020 09:01:15']
546,4030556,Rikitea,PF,-23.12,-134.97,296.18,23.0,73.0,70,10,4.42,9.82,['21 Oct 2020 09:01:15']
547,3838859,Río Gallegos,AR,-51.62,-69.22,281.15,8.0,46.0,52,65,2.1,4.67,['21 Oct 2020 09:01:15']
548,3451138,Rio Grande,BR,-32.03,-52.1,289.82,17.0,62.0,95,99,2.24,4.98,['21 Oct 2020 09:01:15']
549,3571592,Rock Sound,BS,24.9,-76.2,300.51,27.0,81.0,78,100,10.07,22.38,['21 Oct 2020 09:01:15']
550,1797117,Rongcheng,CN,30.63,117.85,286.12,13.0,55.0,78,70,1.02,2.27,['21 Oct 2020 09:01:15']
551,2511716,Roquetas de Mar,ES,36.76,-2.61,296.03,23.0,73.0,64,99,7.2,16.0,['21 Oct 2020 09:01:15']
552,3141310,Rørvik,NO,64.86,11.24,278.15,5.0,41.0,65,75,3.1,6.89,['21 Oct 2020 09:01:15']
553,350203,Rosetta,EG,31.4,30.42,299.53,26.0,79.0,62,0,5.33,11.84,['21 Oct 2020 09:01:15']
554,2638978,Rugby,GB,52.37,-1.26,286.79,14.0,57.0,96,100,4.64,10.31,['21 Oct 2020 09:01:15']
555,1853371,Ryōtsu-minato,JP,38.08,138.43,290.93,18.0,64.0,64,100,4.87,10.82,['21 Oct 2020 09:01:15']
556,358620,Safaga,EG,26.73,33.94,304.21,31.0,88.0,44,0,1.92,4.27,['21 Oct 2020 09:01:15']
557,5546220,Saint George,US,37.1,-113.58,284.15,11.0,52.0,23,1,0.73,1.62,['21 Oct 2020 09:01:15']
558,6137462,Saint-Augustin,CA,51.23,-58.65,278.36,5.0,41.0,65,0,4.66,10.36,['21 Oct 2020 09:01:15']
559,2980915,Arrondissement de Saint-Denis,FR,48.92,2.33,293.69,21.0,69.0,64,90,10.3,22.89,['21 Oct 2020 09:01:15']
560,2980080,Saint-François,FR,46.42,3.91,294.15,21.0,70.0,52,100,10.3,22.89,['21 Oct 2020 09:01:15']
561,3579925,St. George's,GD,12.06,-61.75,304.15,31.0,88.0,70,20,7.7,17.11,['21 Oct 2020 09:01:15']
562,6690296,Saint-Joseph,RE,-21.37,55.62,297.01,24.0,75.0,65,51,7.7,17.11,['21 Oct 2020 09:01:15']
563,6690297,Saint-Leu,RE,-21.15,55.28,296.99,24.0,75.0,65,40,7.7,17.11,['21 Oct 2020 09:01:15']
564,2246451,Saint-Louis,SN,16.33,-15.0,312.1,39.0,102.0,10,3,5.37,11.93,['21 Oct 2020 09:01:15']
565,935215,Saint-Philippe,RE,-21.36,55.77,296.96,24.0,75.0,65,51,7.7,17.11,['21 Oct 2020 09:01:15']
566,935214,Saint-Pierre,RE,-21.34,55.48,297.42,24.0,76.0,65,50,7.7,17.11,['21 Oct 2020 09:01:15']
567,2282178,Sakassou,CI,7.45,-5.29,304.43,31.0,88.0,58,40,3.1,6.89,['21 Oct 2020 09:01:15']
568,2392009,Sakété,BJ,6.74,2.66,303.15,30.0,86.0,79,20,6.7,14.89,['21 Oct 2020 09:01:15']
569,286621,Salalah,OM,17.02,54.09,303.15,30.0,86.0,70,12,3.6,8.0,['21 Oct 2020 09:01:15']
570,3361934,Saldanha,ZA,-33.01,17.94,299.15,26.0,79.0,34,0,6.7,14.89,['21 Oct 2020 09:01:15']
571,3389822,Salinópolis,BR,-0.61,-47.36,303.16,30.0,86.0,62,42,6.02,13.38,['21 Oct 2020 09:01:15']
572,3492997,Samaná,DO,19.21,-69.34,300.15,27.0,81.0,88,40,1.06,2.36,['21 Oct 2020 09:01:15']
573,1056899,Sambava,MG,-14.27,50.17,299.15,26.0,79.0,70,92,8.25,18.33,['21 Oct 2020 09:01:15']
574,3670218,San Andrés,CO,12.58,-81.7,300.15,27.0,81.0,88,75,1.0,2.22,['21 Oct 2020 09:01:15']
575,3628473,San Cristobal,VE,7.77,-72.22,298.15,25.0,77.0,88,40,1.0,2.22,['21 Oct 2020 09:01:15']
576,4726521,San Patricio,US,28.02,-97.52,297.88,25.0,77.0,94,1,2.1,4.67,['21 Oct 2020 09:01:15']
577,3836669,San Rafael,AR,-34.62,-68.33,286.96,14.0,57.0,74,100,3.65,8.11,['21 Oct 2020 09:01:15']
578,1127547,Sangīn,AF,32.07,64.84,290.08,17.0,62.0,24,0,3.0,6.67,['21 Oct 2020 09:01:15']
579,3389609,Santa Inês,BR,-3.67,-45.38,307.2,34.0,93.0,44,7,2.95,6.56,['21 Oct 2020 09:01:15']
580,3450144,Santa Luzia,BR,-19.77,-43.85,295.15,22.0,72.0,78,75,2.6,5.78,['21 Oct 2020 09:01:15']
581,3450083,Santa Maria,BR,-29.68,-53.81,295.65,22.0,72.0,70,90,6.12,13.6,['21 Oct 2020 09:01:15']
582,3627047,Santa Teresa del Tuy,VE,10.23,-66.66,298.71,26.0,78.0,67,22,2.24,4.98,['21 Oct 2020 09:01:15']
583,3388847,São Félix do Xingu,BR,-6.64,-51.99,311.54,38.0,101.0,29,58,1.37,3.04,['21 Oct 2020 09:01:15']
584,3374210,São Filipe,CV,14.9,-24.5,302.41,29.0,85.0,62,0,1.17,2.6,['21 Oct 2020 09:01:15']
585,3662342,São Gabriel da Cachoeira,BR,-0.13,-67.09,305.6,32.0,90.0,54,99,1.2,2.67,['21 Oct 2020 09:01:15']
586,3448903,São João da Barra,BR,-21.64,-41.05,302.15,29.0,84.0,58,20,3.55,7.89,['21 Oct 2020 09:01:15']
587,3388456,São José da Coroa Grande,BR,-8.9,-35.15,301.63,28.0,83.0,66,3,5.74,12.76,['21 Oct 2020 09:01:15']
588,117392,Saqqez,IR,36.25,46.27,290.49,17.0,63.0,29,0,3.76,8.36,['21 Oct 2020 09:01:15']
589,3692020,Saquena,PE,-4.67,-73.52,299.81,27.0,80.0,84,97,1.07,2.38,['21 Oct 2020 09:01:15']
590,2975757,Arrondissement de Saumur,FR,47.33,-0.25,293.92,21.0,69.0,64,75,9.3,20.67,['21 Oct 2020 09:01:15']
591,145531,Saurimo,AO,-9.66,20.39,302.15,29.0,84.0,51,75,2.13,4.73,['21 Oct 2020 09:01:15']
592,2391893,Savé,BJ,8.04,2.49,306.29,33.0,92.0,50,0,1.39,3.09,['21 Oct 2020 09:01:15']
593,2295517,Savelugu,GH,9.62,-0.83,308.3,35.0,95.0,37,0,1.97,4.38,['21 Oct 2020 09:01:15']
594,2439812,Say,NE,13.1,2.37,312.15,39.0,102.0,21,20,2.1,4.67,['21 Oct 2020 09:01:15']
595,2451478,Ségou,ML,13.43,-6.22,310.52,37.0,99.0,13,0,2.74,6.09,['21 Oct 2020 09:01:15']
596,933102,Sekoma,BW,-24.4,23.88,307.19,34.0,93.0,16,0,7.36,16.36,['21 Oct 2020 09:01:15']
597,2255304,Sémbé,CG,1.65,14.58,300.4,27.0,81.0,81,88,1.08,2.4,['21 Oct 2020 09:01:15']
598,898947,Senanga,ZM,-16.12,23.27,312.99,40.0,104.0,7,0,2.51,5.58,['21 Oct 2020 09:01:15']
599,2121385,Severo-Kuril'sk,RU,50.68,156.12,277.86,4.0,40.0,73,62,8.6,19.11,['21 Oct 2020 09:01:15']
600,6145890,Shelburne,CA,44.08,-80.2,284.97,12.0,53.0,100,90,1.5,3.33,['21 Oct 2020 09:01:15']
601,2451184,Sikasso,ML,10.92,-7.0,308.21,35.0,95.0,37,20,1.19,2.64,['21 Oct 2020 09:01:15']
602,492860,Sindor,RU,62.86,51.89,270.46,-3.0,27.0,98,100,3.41,7.58,['21 Oct 2020 09:01:15']
603,2355548,Sindou,BF,10.67,-5.17,307.05,34.0,93.0,36,0,1.66,3.69,['21 Oct 2020 09:01:15']
604,2262917,Sines Municipality,PT,37.96,-8.87,292.04,19.0,66.0,41,25,4.02,8.93,['21 Oct 2020 09:01:15']
605,1732871,Singkang,MY,2.1,102.8,299.99,27.0,80.0,83,20,0.55,1.22,['21 Oct 2020 09:01:15']
606,3380290,Sinnamary,GF,5.38,-52.95,303.7,31.0,87.0,64,10,5.01,11.13,['21 Oct 2020 09:01:15']
607,785881,Šipkovica,MK,42.03,20.92,291.75,18.0,65.0,37,58,1.25,2.78,['21 Oct 2020 09:01:15']
608,5557293,Sitka,US,57.05,-135.33,274.15,1.0,34.0,59,1,1.5,3.33,['21 Oct 2020 09:01:15']
609,3375941,Skeldon,GY,5.88,-57.13,304.38,31.0,88.0,56,73,3.46,7.69,['21 Oct 2020 09:01:15']
610,2961459,Skibbereen,IE,51.55,-9.27,285.15,12.0,54.0,81,75,8.7,19.33,['21 Oct 2020 09:01:15']
611,2450849,Sokolo,ML,14.73,-6.12,311.52,38.0,101.0,11,0,2.81,6.24,['21 Oct 2020 09:01:15']
612,149812,Sokoni,TZ,-6.43,39.55,304.51,31.0,88.0,62,20,5.1,11.33,['21 Oct 2020 09:01:15']
613,933995,Souillac,MU,-20.52,57.52,298.15,25.0,77.0,69,75,5.7,12.67,['21 Oct 2020 09:01:15']
614,2236967,Soyo,AO,-6.13,12.37,302.15,29.0,84.0,70,20,5.1,11.33,['21 Oct 2020 09:01:15']
615,1735799,Sri Aman,MY,1.24,111.46,297.1,24.0,75.0,94,46,2.1,4.67,['21 Oct 2020 09:01:15']
616,1255647,Srikakulam,IN,18.3,83.9,300.63,27.0,81.0,82,100,1.78,3.96,['21 Oct 2020 09:01:15']
617,2612689,Stege,DK,54.99,12.28,285.37,12.0,54.0,94,100,3.13,6.96,['21 Oct 2020 09:01:15']
618,2636790,Stornoway,GB,58.21,-6.39,281.87,9.0,48.0,87,75,14.4,32.0,['21 Oct 2020 09:01:15']
619,2636638,Stromness,GB,58.97,-3.3,283.15,10.0,50.0,93,75,12.9,28.67,['21 Oct 2020 09:01:15']
620,5274887,Suamico,US,44.63,-88.04,277.2,4.0,39.0,80,90,6.2,13.78,['21 Oct 2020 09:01:15']
621,149703,Sumbawanga,TZ,-7.97,31.62,299.15,26.0,79.0,44,20,4.6,10.22,['21 Oct 2020 09:01:15']
622,3346015,Sumbe,AO,-11.21,13.84,301.15,28.0,82.0,69,40,5.1,11.33,['21 Oct 2020 09:01:15']
623,10722858,Forsytheganj,BY,52.63,29.73,280.32,7.0,45.0,85,100,2.98,6.62,['21 Oct 2020 09:01:15']
624,950709,Swellendam,ZA,-34.02,20.44,294.15,21.0,70.0,52,0,4.1,9.11,['21 Oct 2020 09:01:15']
625,485280,Sychëvka,RU,55.83,34.27,275.35,2.0,36.0,97,100,3.95,8.78,['21 Oct 2020 09:01:15']
626,2523082,Syracuse,IT,37.09,15.28,294.67,22.0,71.0,68,2,4.1,9.11,['21 Oct 2020 09:01:15']
627,757178,Szydłowiec,PL,51.23,20.86,286.91,14.0,57.0,76,100,3.1,6.89,['21 Oct 2020 09:01:15']
628,3387082,Tabira,BR,-7.59,-37.54,307.07,34.0,93.0,29,23,4.74,10.53,['21 Oct 2020 09:01:15']
629,2281120,Tabou,CI,4.42,-7.35,300.84,28.0,82.0,75,72,3.94,8.76,['21 Oct 2020 09:01:15']
630,347634,Ţahţā,EG,26.77,31.5,310.66,38.0,100.0,11,0,3.89,8.64,['21 Oct 2020 09:01:15']
631,2294915,Takoradze,GH,4.88,-1.76,300.85,28.0,82.0,81,50,5.5,12.22,['21 Oct 2020 09:01:15']
632,3691582,Talara,PE,-4.58,-81.27,293.15,20.0,68.0,82,40,8.2,18.22,['21 Oct 2020 09:01:15']
633,3870243,Taltal,CL,-25.4,-70.48,290.42,17.0,63.0,59,16,2.1,4.67,['21 Oct 2020 09:01:15']
634,2244991,Tambacounda,SN,13.75,-13.76,308.15,35.0,95.0,44,69,1.0,2.22,['21 Oct 2020 09:01:15']
635,366444,Tambura,SS,5.6,27.47,301.53,28.0,83.0,63,100,0.98,2.18,['21 Oct 2020 09:01:15']
636,3386842,Tangará,BR,-6.2,-35.8,299.15,26.0,79.0,88,75,3.1,6.89,['21 Oct 2020 09:01:15']
637,2450173,Taoudenni,ML,22.68,-3.98,309.25,36.0,97.0,10,0,4.25,9.44,['21 Oct 2020 09:01:15']
638,3374166,Tarrafal,CV,15.28,-23.77,304.15,31.0,88.0,66,0,8.2,18.22,['21 Oct 2020 09:01:15']
639,3108285,Tàrrega,ES,41.65,1.14,298.33,25.0,77.0,56,15,1.34,2.98,['21 Oct 2020 09:01:15']
640,3424607,Tasiilaq,GL,65.61,-37.64,272.15,-1.0,30.0,86,75,1.5,3.33,['21 Oct 2020 09:01:15']
641,2464701,Tataouine,TN,32.93,10.45,300.15,27.0,81.0,28,0,3.1,6.89,['21 Oct 2020 09:01:15']
642,3386568,Tauá,BR,-5.97,-40.3,307.63,34.0,94.0,24,3,5.75,12.78,['21 Oct 2020 09:01:15']
643,1734199,Tawao,MY,4.25,117.89,298.88,26.0,78.0,94,20,1.0,2.22,['21 Oct 2020 09:01:15']
644,2391377,Tchaourou,BJ,8.89,2.6,306.27,33.0,92.0,42,0,1.93,4.29,['21 Oct 2020 09:01:15']
645,2510573,Teguise,ES,29.06,-13.56,299.15,26.0,79.0,65,20,6.7,14.89,['21 Oct 2020 09:01:15']
646,1213493,Teluk Nibung,ID,3.0,99.82,299.91,27.0,80.0,84,91,3.19,7.09,['21 Oct 2020 09:01:15']
647,2449938,Ténenkou,ML,14.46,-4.92,311.68,38.0,101.0,10,0,3.02,6.71,['21 Oct 2020 09:01:15']
648,3108125,Teruel,ES,40.67,-0.67,294.45,21.0,70.0,39,76,7.7,17.11,['21 Oct 2020 09:01:15']
649,2449893,Tessalit,ML,20.2,1.01,311.08,38.0,100.0,9,0,4.17,9.27,['21 Oct 2020 09:01:15']
650,3573374,The Valley,AI,18.22,-63.06,302.7,29.0,85.0,74,20,3.6,8.0,['21 Oct 2020 09:01:15']
651,1337610,Thinadhoo,MV,0.53,72.93,301.53,28.0,83.0,79,10,6.94,15.42,['21 Oct 2020 09:01:15']
652,2221530,Tibati,CM,6.47,12.63,302.8,29.0,85.0,46,0,3.05,6.78,['21 Oct 2020 09:01:15']
653,3691348,Tingo María,PE,-9.29,-76.01,296.15,23.0,73.0,83,75,1.5,3.33,['21 Oct 2020 09:01:15']
654,2527087,Tiznit Province,MA,29.58,-9.5,295.38,22.0,72.0,64,97,3.84,8.53,['21 Oct 2020 09:01:15']
655,1053384,Toamasina,MG,-18.17,49.38,300.15,27.0,81.0,65,20,3.1,6.89,['21 Oct 2020 09:01:15']
656,3869716,Tocopilla,CL,-22.09,-70.2,292.47,19.0,67.0,49,0,2.46,5.47,['21 Oct 2020 09:01:15']
657,2414659,Tokonou,GN,9.65,-9.78,301.22,28.0,83.0,73,57,1.57,3.49,['21 Oct 2020 09:01:15']
658,2449066,Tombouctou,ML,20.0,-3.0,307.97,35.0,95.0,13,0,3.77,8.38,['21 Oct 2020 09:01:15']
659,6167817,Torbay,CA,47.67,-52.73,287.06,14.0,57.0,87,75,5.7,12.67,['21 Oct 2020 09:01:15']
660,365742,Torit,SS,4.41,32.57,303.38,30.0,86.0,61,95,0.28,0.62,['21 Oct 2020 09:01:15']
661,2280376,Touba,CI,8.28,-7.68,303.37,30.0,86.0,56,100,2.24,4.98,['21 Oct 2020 09:01:15']
662,2354176,Tougan,BF,13.07,-3.07,310.86,38.0,100.0,19,10,0.94,2.09,['21 Oct 2020 09:01:15']
663,3386213,Touros,BR,-5.2,-35.46,299.15,26.0,79.0,88,75,3.1,6.89,['21 Oct 2020 09:01:15']
664,2311127,Tshela,CD,-4.98,12.93,300.84,28.0,82.0,74,100,2.03,4.51,['21 Oct 2020 09:01:15']
665,2400547,Tsogni,GA,-2.79,10.1,299.66,27.0,80.0,78,54,4.7,10.44,['21 Oct 2020 09:01:15']
666,1623197,Tual,ID,-5.67,132.75,301.56,28.0,83.0,78,100,5.25,11.67,['21 Oct 2020 09:01:15']
667,3445912,Turmalina,BR,-17.29,-42.73,297.8,24.0,76.0,70,95,1.71,3.8,['21 Oct 2020 09:01:15']
668,3385899,Tutóia,BR,-2.76,-42.27,304.26,31.0,88.0,53,0,6.58,14.62,['21 Oct 2020 09:01:15']
669,1563281,Tuy Hoa,VN,13.08,109.3,297.63,24.0,76.0,85,100,4.04,8.98,['21 Oct 2020 09:01:15']
670,3691094,Uchiza,PE,-8.46,-76.46,294.54,22.0,71.0,85,100,0.32,0.71,['21 Oct 2020 09:01:15']
671,1337619,Ugoofaaru,MV,5.67,73.0,301.41,28.0,83.0,77,0,5.79,12.87,['21 Oct 2020 09:01:15']
672,946257,Ulundi,ZA,-28.34,31.42,292.23,19.0,66.0,73,94,2.03,4.51,['21 Oct 2020 09:01:15']
673,100926,Umluj,SA,25.02,37.27,305.13,32.0,90.0,39,0,4.35,9.67,['21 Oct 2020 09:01:15']
674,3625710,Upata,VE,8.01,-62.4,302.04,29.0,84.0,73,100,2.24,4.98,['21 Oct 2020 09:01:15']
675,3833367,Ushuaia,AR,-54.8,-68.3,282.15,9.0,48.0,42,75,8.2,18.22,['21 Oct 2020 09:01:15']
676,478297,Usogorsk,RU,63.41,48.69,271.34,-2.0,29.0,95,100,3.99,8.87,['21 Oct 2020 09:01:15']
677,477846,Ust'ye,RU,59.63,39.74,274.11,1.0,34.0,88,100,3.01,6.69,['21 Oct 2020 09:01:15']
678,2084442,Vanimo,PG,-2.67,141.3,297.55,24.0,76.0,85,100,2.32,5.16,['21 Oct 2020 09:01:15']
679,2137773,Vao,NC,-22.67,167.48,295.97,23.0,73.0,84,29,6.26,13.91,['21 Oct 2020 09:01:15']
680,777019,Vardø,NO,70.37,31.11,271.15,-2.0,28.0,92,70,8.7,19.33,['21 Oct 2020 09:01:15']
681,3445442,Varzelândia,BR,-15.7,-44.03,296.34,23.0,74.0,73,84,2.94,6.53,['21 Oct 2020 09:01:15']
682,3926328,Végueta,PE,-11.02,-77.64,293.62,21.0,69.0,67,4,3.89,8.64,['21 Oct 2020 09:01:15']
683,2610343,Vestmanna,FO,62.16,-7.17,279.15,6.0,43.0,75,0,3.1,6.89,['21 Oct 2020 09:01:15']
684,3412093,Vestmannaeyjar,IS,63.44,-20.27,278.15,5.0,41.0,80,75,6.2,13.78,['21 Oct 2020 09:01:15']
685,2969391,Arrondissement de Vichy,FR,46.25,3.58,293.92,21.0,69.0,52,91,10.3,22.89,['21 Oct 2020 09:01:15']
686,1819729,Hong Kong,HK,22.29,114.16,296.13,23.0,73.0,63,100,1.34,2.98,['21 Oct 2020 09:01:15']
687,3374120,Vila do Maio,CV,15.13,-23.22,304.15,31.0,88.0,66,0,8.2,18.22,['21 Oct 2020 09:01:15']
688,3372472,Vila Franca do Campo,PT,37.72,-25.43,292.15,19.0,66.0,59,20,8.2,18.22,['21 Oct 2020 09:01:15']
689,3445026,Vila Velha,BR,-20.33,-40.29,298.96,26.0,78.0,74,40,3.1,6.89,['21 Oct 2020 09:01:15']
690,2509491,Villarrobledo,ES,39.27,-2.6,290.54,17.0,63.0,61,100,3.58,7.96,['21 Oct 2020 09:01:15']
691,2967970,Arrondissement de Vire,FR,48.92,-0.83,292.15,19.0,66.0,68,75,12.3,27.33,['21 Oct 2020 09:01:15']
692,3359638,Walvis Bay,NA,-22.96,14.51,290.0,17.0,62.0,67,75,7.2,16.0,['21 Oct 2020 09:01:15']
693,204283,Watsa,CD,3.04,29.54,297.68,24.0,76.0,90,100,0.42,0.93,['21 Oct 2020 09:01:15']
694,1224061,Wattegama,LK,6.8,81.48,303.15,30.0,86.0,70,40,5.1,11.33,['21 Oct 2020 09:01:15']
695,5014208,Waverly,US,42.74,-84.62,283.01,10.0,50.0,81,90,6.7,14.89,['21 Oct 2020 09:01:15']
696,4845585,Westport,US,41.14,-73.36,289.66,17.0,62.0,99,100,2.19,4.87,['21 Oct 2020 09:01:15']
697,2318921,Wukari,NG,7.85,9.78,306.1,33.0,91.0,48,0,1.97,4.38,['21 Oct 2020 09:01:15']
698,178073,Wundanyi,KE,-3.4,38.36,297.95,25.0,77.0,36,0,7.06,15.69,['21 Oct 2020 09:01:15']
699,2338660,Yaan,NG,7.38,8.57,304.41,31.0,88.0,59,25,1.48,3.29,['21 Oct 2020 09:01:15']
700,203717,Yangambi,CD,0.81,24.43,299.53,26.0,79.0,88,100,0.67,1.49,['21 Oct 2020 09:01:15']
701,4956335,Yarmouth,US,41.71,-70.23,290.32,17.0,63.0,100,90,2.47,5.49,['21 Oct 2020 09:01:15']
702,468747,Yashkul',RU,46.17,45.34,284.85,12.0,53.0,42,0,3.63,8.07,['21 Oct 2020 09:01:15']
703,6185377,Yellowknife,CA,62.46,-114.35,265.8,-7.0,19.0,92,75,3.1,6.89,['21 Oct 2020 09:01:15']
704,2318123,Yenagoa,NG,4.92,6.26,303.85,31.0,87.0,61,90,2.05,4.56,['21 Oct 2020 09:01:15']
705,1252738,Yeola,IN,20.03,74.48,299.53,26.0,79.0,77,75,3.03,6.73,['21 Oct 2020 09:01:15']
706,463655,Zenzeli,RU,45.92,47.05,284.15,11.0,52.0,43,0,4.04,8.98,['21 Oct 2020 09:01:15']
707,463144,Zheshart,RU,62.07,49.57,269.75,-3.0,26.0,97,97,3.02,6.71,['21 Oct 2020 09:01:15']
708,1516589,Zhezkazgan,KZ,47.8,67.71,284.38,11.0,52.0,48,100,7.99,17.76,['21 Oct 2020 09:01:15']
