,City ID,City,Country Code,Latitude,Longitude,Temp Kelvin,Temp C,Temp F,Humidity (RH)%,Cloud% Cover,wind speed (m/s),wind speed (mph),Time stamp
0,2353099,Abakaliki,NG,6.32,8.12,303.18,30.0,86.0,73,48,1.65,3.67,['20 Oct 2020 12:23:44']
1,110690,Abhā,SA,18.22,42.51,293.15,20.0,68.0,10,1,5.1,11.33,['20 Oct 2020 12:23:44']
2,2324433,Abonnema,NG,4.71,6.79,301.15,28.0,82.0,78,75,2.6,5.78,['20 Oct 2020 12:23:44']
3,172515,Abu Samrah,SY,35.3,37.18,297.13,24.0,75.0,28,0,3.9,8.67,['20 Oct 2020 12:23:44']
4,3408368,Acaraú,BR,-2.89,-40.12,304.66,32.0,89.0,51,49,10.2,22.67,['20 Oct 2020 12:23:44']
5,2293428,Adiaké,CI,5.29,-3.3,301.15,28.0,82.0,78,40,6.7,14.89,['20 Oct 2020 12:23:44']
6,2381972,Adrar,MR,20.5,-10.07,307.84,34.0,94.0,11,0,3.87,8.6,['20 Oct 2020 12:23:44']
7,2448083,Agadez,NE,19.75,10.25,307.51,34.0,94.0,10,0,2.22,4.93,['20 Oct 2020 12:23:44']
8,2293268,Agboville,CI,5.93,-4.21,300.3,27.0,81.0,88,78,1.99,4.42,['20 Oct 2020 12:23:44']
9,1651810,Airai,TL,-8.93,125.41,289.52,16.0,61.0,80,100,0.83,1.84,['20 Oct 2020 12:23:44']
10,1529660,Aksu,CN,41.12,80.26,285.6,12.0,54.0,36,0,2.86,6.36,['20 Oct 2020 12:23:44']
11,1526619,Aktas,KZ,49.78,72.96,269.15,-4.0,25.0,68,0,3.0,6.67,['20 Oct 2020 12:23:44']
12,5106841,Albany,US,42.6,-73.97,289.28,16.0,61.0,76,100,1.33,2.96,['20 Oct 2020 12:23:44']
13,583345,Aleksandrov Gay,RU,50.15,48.57,281.87,9.0,48.0,51,0,3.47,7.71,['20 Oct 2020 12:23:44']
14,361058,Alexandria,EG,31.22,29.96,301.15,28.0,82.0,58,0,6.2,13.78,['20 Oct 2020 12:23:44']
15,2271968,Aljezur,PT,37.32,-8.8,290.1,17.0,63.0,91,100,2.89,6.42,['20 Oct 2020 12:23:44']
16,6316343,Alta Floresta,BR,-9.88,-56.09,308.3,35.0,95.0,37,86,1.64,3.64,['20 Oct 2020 12:23:44']
17,3407882,Altamira,BR,-3.2,-52.21,310.36,37.0,99.0,33,66,2.19,4.87,['20 Oct 2020 12:23:44']
18,1529651,Altay,CN,47.87,88.12,275.34,2.0,36.0,68,0,1.54,3.42,['20 Oct 2020 12:23:44']
19,245338,Am Timan,TD,11.03,20.28,303.13,30.0,86.0,31,0,1.46,3.24,['20 Oct 2020 12:23:44']
20,3407762,Amapá,BR,1.0,-52.0,309.23,36.0,97.0,34,2,3.59,7.98,['20 Oct 2020 12:23:44']
21,1082243,Ambilobe,MG,-13.2,49.05,299.2,26.0,79.0,67,53,0.08,0.18,['20 Oct 2020 12:23:44']
22,143534,Āmol,IR,36.47,52.35,291.61,18.0,65.0,87,8,2.12,4.71,['20 Oct 2020 12:23:44']
23,235191,Amudat,UG,1.95,34.95,299.03,26.0,79.0,48,91,4.07,9.04,['20 Oct 2020 12:23:44']
24,3899695,Ancud,CL,-41.87,-73.82,284.15,11.0,52.0,43,0,3.6,8.0,['20 Oct 2020 12:23:44']
25,3472245,Andrelândia,BR,-21.74,-44.31,296.11,23.0,73.0,60,96,2.77,6.16,['20 Oct 2020 12:23:44']
26,1052944,Angoche,MZ,-16.23,39.91,299.49,26.0,79.0,70,0,5.07,11.27,['20 Oct 2020 12:23:44']
27,2304548,Anloga,GH,5.79,0.9,303.15,30.0,86.0,74,20,5.7,12.67,['20 Oct 2020 12:23:44']
28,1278532,Anta,IN,25.15,76.3,299.65,27.0,80.0,25,3,3.19,7.09,['20 Oct 2020 12:23:44']
29,3899539,Antofagasta,CL,-23.65,-70.4,291.94,19.0,66.0,67,75,4.1,9.11,['20 Oct 2020 12:23:44']
30,3407407,Aquiraz,BR,-3.9,-38.39,304.15,31.0,88.0,55,40,8.7,19.33,['20 Oct 2020 12:23:44']
31,3358666,Aranos,NA,-24.13,19.12,303.16,30.0,86.0,13,0,6.6,14.67,['20 Oct 2020 12:23:44']
32,3665199,Ariquemes,BR,-9.91,-63.04,310.97,38.0,100.0,30,39,1.9,4.22,['20 Oct 2020 12:23:44']
33,2447513,Arlit,NE,18.74,7.39,311.94,39.0,102.0,7,0,0.3,0.67,['20 Oct 2020 12:23:44']
34,3471451,Arraial do Cabo,BR,-22.97,-42.03,301.15,28.0,82.0,65,8,10.3,22.89,['20 Oct 2020 12:23:44']
35,343300,Asmara,ER,15.33,38.93,287.77,14.0,58.0,80,2,3.38,7.51,['20 Oct 2020 12:23:44']
36,615660,Aspindza,GE,41.57,43.25,284.84,12.0,53.0,80,100,2.92,6.49,['20 Oct 2020 12:23:44']
37,1651103,Atambua,ID,-9.11,124.89,296.84,24.0,75.0,75,100,0.73,1.62,['20 Oct 2020 12:23:44']
38,2381334,Atar,MR,20.52,-13.05,309.71,37.0,98.0,16,4,6.16,13.69,['20 Oct 2020 12:23:44']
39,4020109,Atuona,PF,-9.8,-139.03,297.99,25.0,77.0,76,11,9.46,21.02,['20 Oct 2020 12:23:44']
40,2303611,Esim,GH,4.87,-2.24,299.73,27.0,80.0,81,69,5.32,11.82,['20 Oct 2020 12:23:44']
41,3946962,Ayna,PE,-12.65,-73.92,295.15,22.0,72.0,26,20,3.1,6.89,['20 Oct 2020 12:23:44']
42,3567995,Bahía Honda,CU,22.9,-83.16,300.52,27.0,81.0,74,49,6.86,15.24,['20 Oct 2020 12:23:44']
43,1728675,Balabac,PH,7.99,117.06,300.35,27.0,81.0,82,100,4.99,11.09,['20 Oct 2020 12:23:44']
44,161616,Balkanabat,TM,39.51,54.37,291.14,18.0,64.0,64,0,2.58,5.73,['20 Oct 2020 12:23:44']
45,2460596,Bamako,ML,12.65,-8.0,310.15,37.0,99.0,22,20,2.1,4.67,['20 Oct 2020 12:23:44']
46,1106677,Bambous Virieux,MU,-20.34,57.76,297.36,24.0,76.0,73,40,5.7,12.67,['20 Oct 2020 12:23:44']
47,64814,Bandarbeyla,SO,9.49,50.81,299.78,27.0,80.0,76,0,3.51,7.8,['20 Oct 2020 12:23:44']
48,1650232,Banjar,ID,-8.19,114.97,300.15,27.0,81.0,88,20,3.1,6.89,['20 Oct 2020 12:23:44']
49,3470674,Barra dos Coqueiros,BR,-10.91,-37.04,303.15,30.0,86.0,51,20,6.2,13.78,['20 Oct 2020 12:23:44']
50,3946820,Barranca,PE,-10.75,-77.77,293.82,21.0,69.0,64,6,4.23,9.4,['20 Oct 2020 12:23:44']
51,1726449,Basco,PH,20.45,121.97,301.36,28.0,83.0,79,100,13.78,30.62,['20 Oct 2020 12:23:44']
52,3374083,Bathsheba,BB,13.22,-59.52,304.15,31.0,88.0,70,75,5.1,11.33,['20 Oct 2020 12:23:44']
53,750938,Bayburt,TR,40.26,40.23,283.21,10.0,50.0,80,100,2.45,5.44,['20 Oct 2020 12:23:44']
54,3405852,Belém de São Francisco,BR,-8.75,-38.97,309.8,37.0,98.0,18,8,6.83,15.18,['20 Oct 2020 12:23:44']
55,3470137,Belmonte,BR,-15.86,-38.88,297.15,24.0,75.0,88,90,2.6,5.78,['20 Oct 2020 12:23:44']
56,577576,Belyy,RU,55.84,32.94,274.73,2.0,35.0,88,79,3.26,7.24,['20 Oct 2020 12:23:44']
57,1649150,Bengkulu,ID,-3.8,102.27,298.17,25.0,77.0,84,98,2.02,4.49,['20 Oct 2020 12:23:44']
58,3351663,Benguela,AO,-12.58,13.41,298.15,25.0,77.0,78,90,5.1,11.33,['20 Oct 2020 12:23:44']
59,377472,Bentiu,SS,9.23,29.83,301.75,28.0,83.0,55,78,1.06,2.36,['20 Oct 2020 12:23:44']
60,64435,Berbera,SO,10.44,45.01,303.47,31.0,87.0,51,0,2.02,4.49,['20 Oct 2020 12:23:44']
61,3105522,Bereda,ES,43.27,-7.54,286.85,14.0,57.0,97,100,0.89,1.98,['20 Oct 2020 12:23:44']
62,5457180,Bernalillo,US,35.05,-106.67,291.52,18.0,65.0,20,0,1.04,2.31,['20 Oct 2020 12:23:44']
63,3405870,Belém,BR,-1.46,-48.5,303.15,30.0,86.0,74,75,4.1,9.11,['20 Oct 2020 12:23:44']
64,1637001,Biak,ID,-0.91,122.88,298.01,25.0,77.0,68,77,3.12,6.93,['20 Oct 2020 12:23:44']
65,2303060,Bibiani,GH,6.46,-2.32,299.21,26.0,79.0,90,71,1.81,4.02,['20 Oct 2020 12:23:44']
66,2446796,Bilma,NE,18.69,12.92,307.69,34.0,94.0,10,0,2.04,4.53,['20 Oct 2020 12:23:44']
67,244878,Biltine,TD,14.53,20.92,307.92,35.0,95.0,10,0,5.28,11.73,['20 Oct 2020 12:23:44']
68,895057,Binga,ZW,-17.62,27.34,303.59,31.0,87.0,21,0,2.56,5.69,['20 Oct 2020 12:23:44']
69,140463,Birjand,IR,32.87,59.22,284.15,11.0,52.0,7,0,2.6,5.78,['20 Oct 2020 12:23:44']
70,2435124,Bitkine,TD,11.98,18.21,306.16,33.0,91.0,19,0,3.05,6.78,['20 Oct 2020 12:23:44']
71,3664980,Boa Vista,BR,2.82,-60.67,307.15,34.0,93.0,49,75,2.6,5.78,['20 Oct 2020 12:23:44']
72,3664956,Boca do Acre,BR,-8.75,-67.4,306.03,33.0,91.0,47,60,0.81,1.8,['20 Oct 2020 12:23:44']
73,2388614,Boda,CF,4.32,17.47,299.61,27.0,80.0,80,39,0.08,0.18,['20 Oct 2020 12:23:44']
74,218680,Boende,CD,-0.22,20.87,299.7,27.0,80.0,72,1,0.92,2.04,['20 Oct 2020 12:23:44']
75,2302821,Bolgatanga,GH,10.79,-0.85,307.14,34.0,93.0,39,49,0.3,0.67,['20 Oct 2020 12:23:44']
76,218229,Bongandanga,CD,1.5,21.05,300.09,27.0,80.0,74,8,1.21,2.69,['20 Oct 2020 12:23:44']
77,2291087,Bonoua,CI,5.27,-3.6,301.15,28.0,82.0,78,40,6.7,14.89,['20 Oct 2020 12:23:44']
78,2409914,Bonthe,SL,7.53,-12.51,301.89,29.0,84.0,70,80,5.17,11.49,['20 Oct 2020 12:23:44']
79,64013,Bosaso,SO,11.28,49.18,300.48,27.0,81.0,57,0,0.19,0.42,['20 Oct 2020 12:23:44']
80,2316473,Bosobolo,CD,4.18,19.9,298.75,26.0,78.0,88,47,0.83,1.84,['20 Oct 2020 12:23:44']
81,2387890,Bouca,CF,6.51,18.27,301.04,28.0,82.0,72,17,0.8,1.78,['20 Oct 2020 12:23:44']
82,2459775,Bougouni,ML,11.42,-7.48,307.55,34.0,94.0,34,0,1.19,2.64,['20 Oct 2020 12:23:44']
83,2290849,Bouna,CI,9.27,-3.0,300.58,27.0,81.0,71,60,4.26,9.47,['20 Oct 2020 12:23:44']
84,2361845,Boussé,BF,12.66,-1.89,306.15,33.0,91.0,55,20,2.6,5.78,['20 Oct 2020 12:23:44']
85,2654970,Brae,GB,60.4,-1.35,282.15,9.0,48.0,93,75,12.3,27.33,['20 Oct 2020 12:23:44']
86,1015776,Bredasdorp,ZA,-34.53,20.04,290.15,17.0,63.0,55,0,6.2,13.78,['20 Oct 2020 12:23:44']
87,3468893,Brumado,BR,-14.2,-41.67,305.08,32.0,89.0,39,97,4.88,10.84,['20 Oct 2020 12:23:44']
88,2374583,Bubaque,GW,11.28,-15.83,302.06,29.0,84.0,76,37,3.55,7.89,['20 Oct 2020 12:23:44']
89,2278158,Buchanan,LR,5.88,-10.05,303.15,30.0,86.0,74,75,3.6,8.0,['20 Oct 2020 12:23:44']
90,217831,Bukavu,CD,-2.51,28.86,291.06,18.0,64.0,85,100,0.69,1.53,['20 Oct 2020 12:23:44']
91,107304,Buraidah,SA,26.33,43.98,300.15,27.0,81.0,19,0,2.6,5.78,['20 Oct 2020 12:23:44']
92,1014653,Burgersdorp,ZA,-31.0,26.33,290.84,18.0,64.0,33,4,8.71,19.36,['20 Oct 2020 12:23:44']
93,234081,Bushenyi,UG,-0.59,30.21,290.84,18.0,64.0,94,99,0.56,1.24,['20 Oct 2020 12:23:44']
94,2075265,Busselton,AU,-33.65,115.33,286.7,13.0,56.0,58,77,4.05,9.0,['20 Oct 2020 12:23:44']
95,217570,Buta,CD,2.79,24.73,296.71,23.0,74.0,94,100,0.61,1.36,['20 Oct 2020 12:23:44']
96,3985710,Cabo San Lucas,MX,22.89,-109.91,303.88,31.0,87.0,48,5,1.5,3.33,['20 Oct 2020 12:23:44']
97,3404513,Cabrobó,BR,-8.51,-39.31,309.75,37.0,98.0,18,23,6.15,13.67,['20 Oct 2020 12:23:44']
98,3369174,Calvinia,ZA,-31.47,19.78,293.06,20.0,68.0,22,1,5.12,11.38,['20 Oct 2020 12:23:44']
99,3403687,Camocim,BR,-2.9,-40.84,306.71,33.0,92.0,41,34,8.36,18.58,['20 Oct 2020 12:23:44']
100,2520413,Campo de Criptana,ES,39.4,-3.12,299.08,26.0,79.0,21,98,9.21,20.47,['20 Oct 2020 12:23:44']
101,934649,Cap Malheureux,MU,-19.98,57.61,297.59,24.0,76.0,67,0,4.02,8.93,['20 Oct 2020 12:23:44']
102,2302357,Cape Coast,GH,5.11,-1.25,299.77,27.0,80.0,82,58,7.06,15.69,['20 Oct 2020 12:23:44']
103,3369157,Cape Town,ZA,-33.93,18.42,289.81,17.0,62.0,51,3,7.7,17.11,['20 Oct 2020 12:23:44']
104,3439208,Capiíbary,PY,-24.8,-56.03,308.97,36.0,96.0,31,1,1.75,3.89,['20 Oct 2020 12:23:44']
105,3466980,Caravelas,BR,-17.71,-39.25,300.53,27.0,81.0,65,99,4.03,8.96,['20 Oct 2020 12:23:44']
106,2525362,Carbonia,IT,39.17,8.52,293.77,21.0,69.0,64,20,5.7,12.67,['20 Oct 2020 12:23:44']
107,2074865,Carnarvon,AU,-24.87,113.63,293.15,20.0,68.0,72,0,7.7,17.11,['20 Oct 2020 12:23:44']
108,4459343,Carrboro,US,35.91,-79.08,296.09,23.0,73.0,75,0,0.75,1.67,['20 Oct 2020 12:23:44']
109,2269594,Cascais,PT,38.7,-9.42,289.84,17.0,62.0,93,75,2.1,4.67,['20 Oct 2020 12:23:44']
110,5820705,Casper,US,42.87,-106.31,280.0,7.0,44.0,75,1,1.5,3.33,['20 Oct 2020 12:23:44']
111,3466704,Castro,BR,-24.79,-50.01,300.45,27.0,81.0,49,47,1.03,2.29,['20 Oct 2020 12:23:44']
112,3382160,Cayenne,GF,4.93,-52.33,306.15,33.0,91.0,49,47,5.1,11.33,['20 Oct 2020 12:23:44']
113,1161724,Chabahar,IR,25.29,60.64,299.15,26.0,79.0,61,0,3.1,6.89,['20 Oct 2020 12:23:44']
114,3712579,Chame,PA,8.58,-79.88,301.48,28.0,83.0,66,92,5.04,11.2,['20 Oct 2020 12:23:44']
115,3598787,Champerico,GT,14.3,-91.92,301.15,28.0,82.0,78,40,4.1,9.11,['20 Oct 2020 12:23:44']
116,4014501,Charcas,MX,23.13,-101.12,290.51,17.0,63.0,57,27,3.2,7.11,['20 Oct 2020 12:23:44']
117,160552,Chato,TZ,-2.64,31.77,294.94,22.0,71.0,77,96,2.23,4.96,['20 Oct 2020 12:23:44']
118,3698304,Chimbote,PE,-9.09,-78.58,293.79,21.0,69.0,65,35,4.41,9.8,['20 Oct 2020 12:23:44']
119,3920736,Chimoré,BO,-16.98,-65.13,308.09,35.0,95.0,39,17,2.7,6.0,['20 Oct 2020 12:23:44']
120,893485,Chiredzi,ZW,-21.05,31.67,305.32,32.0,90.0,13,0,3.28,7.29,['20 Oct 2020 12:23:44']
121,1048364,Chokwé,MZ,-24.53,32.98,307.07,34.0,93.0,13,0,1.94,4.31,['20 Oct 2020 12:23:44']
122,3443061,Chui,UY,-33.7,-53.46,289.35,16.0,61.0,69,100,7.75,17.22,['20 Oct 2020 12:23:44']
123,3466165,Cidreira,BR,-30.18,-50.21,297.4,24.0,76.0,67,0,4.95,11.0,['20 Oct 2020 12:23:44']
124,3645532,Ciudad Bolivar,VE,8.12,-63.55,306.93,34.0,93.0,49,53,3.53,7.84,['20 Oct 2020 12:23:44']
125,2652885,Cleethorpes,GB,53.56,-0.03,289.52,16.0,61.0,82,99,4.6,10.22,['20 Oct 2020 12:23:44']
126,5924351,Clyde River,CA,70.47,-68.59,273.15,0.0,32.0,88,1,11.8,26.22,['20 Oct 2020 12:23:44']
127,4013679,Coahuayana Viejo,MX,18.73,-103.68,300.15,27.0,81.0,74,5,0.69,1.53,['20 Oct 2020 12:23:44']
128,3664539,Coari,BR,-4.08,-63.14,308.08,35.0,95.0,44,84,1.15,2.56,['20 Oct 2020 12:23:44']
129,3576994,Cockburn Town,TC,21.46,-71.14,301.31,28.0,83.0,71,5,4.4,9.78,['20 Oct 2020 12:23:44']
130,3664525,Codajás,BR,-3.84,-62.06,308.17,35.0,95.0,45,98,1.2,2.67,['20 Oct 2020 12:23:44']
131,2171099,Codrington,AU,-38.27,141.97,281.63,8.0,47.0,89,100,1.65,3.67,['20 Oct 2020 12:23:44']
132,3894426,Coyhaique,CL,-45.58,-72.07,283.15,10.0,50.0,57,20,4.1,9.11,['20 Oct 2020 12:23:44']
133,3509386,Comendador,DO,18.88,-71.7,301.53,28.0,83.0,61,77,0.14,0.31,['20 Oct 2020 12:23:44']
134,3860443,Comodoro Rivadavia,AR,-45.87,-67.5,285.15,12.0,54.0,46,0,5.7,12.67,['20 Oct 2020 12:23:44']
135,2422465,Conakry,GN,9.54,-13.68,303.15,30.0,86.0,70,40,5.1,11.33,['20 Oct 2020 12:23:44']
136,3465769,Conceição da Barra,BR,-18.59,-39.73,299.79,27.0,80.0,61,100,3.38,7.51,['20 Oct 2020 12:23:44']
137,3385077,Conde,BR,-7.26,-34.91,303.15,30.0,86.0,55,40,7.2,16.0,['20 Oct 2020 12:23:44']
138,3465644,Conselheiro Lafaiete,BR,-20.66,-43.79,294.09,21.0,70.0,74,100,2.86,6.36,['20 Oct 2020 12:23:44']
139,2501152,Constantine,DZ,36.37,6.61,300.15,27.0,81.0,19,0,4.6,10.22,['20 Oct 2020 12:23:44']
140,3697838,Contamana,PE,-7.33,-75.02,309.5,36.0,97.0,32,46,2.01,4.47,['20 Oct 2020 12:23:44']
141,3893656,Copiapó,CL,-27.37,-70.33,289.15,16.0,61.0,72,40,6.2,13.78,['20 Oct 2020 12:23:44']
142,3893629,Coquimbo,CL,-29.95,-71.34,290.15,17.0,63.0,63,0,7.2,16.0,['20 Oct 2020 12:23:44']
143,259289,Corinth,GR,37.94,22.96,291.48,18.0,65.0,55,58,4.2,9.33,['20 Oct 2020 12:23:44']
144,2394819,Cotonou,BJ,6.37,2.42,303.15,30.0,86.0,79,20,7.2,16.0,['20 Oct 2020 12:23:44']
145,2394814,Cové,BJ,7.22,2.34,302.44,29.0,85.0,75,59,2.08,4.62,['20 Oct 2020 12:23:44']
146,3401148,Cururupu,BR,-1.83,-44.87,303.93,31.0,87.0,58,100,4.35,9.67,['20 Oct 2020 12:23:44']
147,2290582,Dabou,CI,5.33,-4.38,301.15,28.0,82.0,78,40,6.7,14.89,['20 Oct 2020 12:23:44']
148,2253354,Dakar,SN,14.69,-17.44,307.15,34.0,93.0,52,60,2.1,4.67,['20 Oct 2020 12:23:44']
149,137956,Dārāb,IR,28.75,54.54,292.99,20.0,68.0,15,0,3.35,7.44,['20 Oct 2020 12:23:44']
150,933815,Dekar,BW,-21.53,21.93,308.14,35.0,95.0,10,90,2.21,4.91,['20 Oct 2020 12:23:44']
151,1507390,Dikson,RU,73.51,80.55,267.51,-6.0,22.0,95,93,4.46,9.91,['20 Oct 2020 12:23:44']
152,1714733,Dingle,PH,11.0,122.67,298.04,25.0,77.0,85,100,3.17,7.04,['20 Oct 2020 12:23:44']
153,290030,Doha,QA,25.29,51.53,303.41,30.0,86.0,58,0,4.1,9.11,['20 Oct 2020 12:23:44']
154,5520552,Dumas,US,35.87,-101.97,287.18,14.0,57.0,76,40,7.7,17.11,['20 Oct 2020 12:23:44']
155,160141,Dunda,TZ,-8.12,34.25,301.77,29.0,84.0,34,73,3.03,6.73,['20 Oct 2020 12:23:44']
156,1006984,East London,ZA,-33.02,27.91,290.15,17.0,63.0,67,45,11.3,25.11,['20 Oct 2020 12:23:44']
157,2232239,Edéa,CM,3.8,10.13,302.15,29.0,84.0,83,75,1.5,3.33,['20 Oct 2020 12:23:44']
158,3464100,Entre Rios,BR,-11.94,-38.08,305.0,32.0,89.0,39,25,4.46,9.91,['20 Oct 2020 12:23:44']
159,296852,Erzin,TR,36.96,36.2,299.26,26.0,79.0,71,24,1.85,4.11,['20 Oct 2020 12:23:44']
160,1524296,Esil,KZ,51.96,66.4,284.99,12.0,53.0,52,70,5.32,11.82,['20 Oct 2020 12:23:44']
161,2071860,Esperance,AU,-33.87,121.9,288.15,15.0,59.0,100,90,5.7,12.67,['20 Oct 2020 12:23:44']
162,4323873,Estelle,US,29.85,-90.11,299.78,27.0,80.0,78,75,4.6,10.22,['20 Oct 2020 12:23:44']
163,5949601,Eston,CA,51.15,-108.75,270.19,-3.0,27.0,79,90,6.7,14.89,['20 Oct 2020 12:23:44']
164,5563397,Eureka,US,40.8,-124.16,283.15,10.0,50.0,100,40,1.59,3.53,['20 Oct 2020 12:23:44']
165,2260009,Ewo,CG,-0.87,14.82,298.05,25.0,77.0,80,95,1.69,3.76,['20 Oct 2020 12:23:44']
166,4034551,Faanui,PF,-16.48,-151.75,298.87,26.0,78.0,82,75,6.47,14.38,['20 Oct 2020 12:23:44']
167,2927871,Bad Fallingbostel,DE,52.87,9.7,283.15,10.0,50.0,87,75,2.6,5.78,['20 Oct 2020 12:23:44']
168,110690,Faya,SA,18.39,42.45,293.15,20.0,68.0,10,0,5.1,11.33,['20 Oct 2020 12:23:44']
169,2037391,Fengzhen,CN,40.44,113.15,274.92,2.0,35.0,69,9,4.48,9.96,['20 Oct 2020 12:23:44']
170,921889,Fomboni,KM,-12.28,43.74,300.19,27.0,81.0,70,0,2.97,6.6,['20 Oct 2020 12:23:44']
171,5955902,Fort Nelson,CA,58.81,-122.7,262.15,-11.0,12.0,85,75,1.24,2.76,['20 Oct 2020 12:23:44']
172,2400578,Fougamou,GA,-1.22,10.58,299.49,26.0,79.0,87,94,1.58,3.51,['20 Oct 2020 12:23:44']
173,2372532,Gabú,GW,12.28,-14.22,308.49,36.0,96.0,39,36,1.72,3.82,['20 Oct 2020 12:23:44']
174,2400547,Gamba,GA,-2.65,10.0,298.56,26.0,78.0,84,100,3.69,8.2,['20 Oct 2020 12:23:44']
175,293842,Kiryat Gat,IL,31.61,34.76,299.41,26.0,79.0,37,0,4.16,9.24,['20 Oct 2020 12:23:44']
176,2277060,Gbarnga,LR,7.0,-9.47,301.91,29.0,84.0,65,98,2.3,5.11,['20 Oct 2020 12:23:44']
177,746983,Gelibolu,TR,40.41,26.67,288.15,15.0,59.0,82,75,7.2,16.0,['20 Oct 2020 12:23:44']
178,1735106,George Town,MY,5.41,100.34,301.34,28.0,83.0,88,40,1.5,3.33,['20 Oct 2020 12:23:44']
179,2070998,Geraldton,AU,-28.77,114.6,291.15,18.0,64.0,77,90,7.2,16.0,['20 Oct 2020 12:23:44']
180,336526,Gīdolē,ET,5.65,37.37,289.6,17.0,62.0,85,49,0.86,1.91,['20 Oct 2020 12:23:44']
181,5962442,Goderich,CA,43.75,-81.72,282.05,9.0,48.0,76,98,5.39,11.98,['20 Oct 2020 12:23:44']
182,1863521,Gōtsuchō,JP,35.0,132.22,287.34,14.0,58.0,75,0,3.27,7.27,['20 Oct 2020 12:23:44']
183,2444219,Gouré,NE,13.98,10.27,308.71,36.0,96.0,11,22,5.48,12.18,['20 Oct 2020 12:23:44']
184,934479,Grand Gaube,MU,-20.01,57.66,297.59,24.0,76.0,67,0,4.02,8.93,['20 Oct 2020 12:23:44']
185,2288105,Grand-Lahou,CI,5.14,-5.02,300.22,27.0,81.0,76,53,5.38,11.96,['20 Oct 2020 12:23:44']
186,1734651,Gua Musang,MY,4.88,101.96,297.26,24.0,75.0,91,26,0.44,0.98,['20 Oct 2020 12:23:44']
187,1806466,Guangyuan,CN,32.44,105.82,283.45,11.0,51.0,91,89,1.34,2.98,['20 Oct 2020 12:23:44']
188,3461874,Guararapes,BR,-21.26,-50.64,301.55,28.0,83.0,58,86,1.92,4.27,['20 Oct 2020 12:23:44']
189,2413419,Gunjur,GM,13.2,-16.73,308.15,35.0,95.0,67,40,1.5,3.33,['20 Oct 2020 12:23:44']
190,933734,Gweta,BW,-20.18,25.23,308.73,36.0,96.0,9,0,2.22,4.93,['20 Oct 2020 12:23:44']
191,2747373,The Hague,NL,52.08,4.3,287.97,15.0,59.0,77,100,4.6,10.22,['20 Oct 2020 12:23:44']
192,3527164,Halachó,MX,20.48,-90.08,301.64,28.0,83.0,78,75,2.1,4.67,['20 Oct 2020 12:23:44']
193,5354943,Half Moon Bay,US,37.46,-122.43,290.24,17.0,63.0,82,5,1.5,3.33,['20 Oct 2020 12:23:44']
194,1244926,Hambantota,LK,6.12,81.12,300.15,27.0,81.0,74,20,2.6,5.78,['20 Oct 2020 12:23:44']
195,4513583,Hamilton,US,39.18,-84.53,283.67,11.0,51.0,93,90,3.1,6.89,['20 Oct 2020 12:23:44']
196,2276492,Harper,LR,4.38,-7.72,299.81,27.0,80.0,77,97,4.13,9.18,['20 Oct 2020 12:23:44']
197,4470244,Havelock,US,34.88,-76.9,297.49,24.0,76.0,83,90,3.1,6.89,['20 Oct 2020 12:23:44']
198,2907589,Heiligenhafen,DE,54.37,10.98,282.95,10.0,50.0,87,100,3.1,6.89,['20 Oct 2020 12:23:44']
199,3356832,Henties Bay,NA,-22.12,14.28,289.82,17.0,62.0,79,0,0.45,1.0,['20 Oct 2020 12:23:44']
200,3366880,Hermanus,ZA,-34.42,19.23,289.26,16.0,61.0,64,0,2.24,4.98,['20 Oct 2020 12:23:44']
201,5855927,Hilo,US,19.73,-155.09,293.26,20.0,68.0,64,1,3.1,6.89,['20 Oct 2020 12:23:44']
202,1282256,Hithadhoo,MV,-0.6,73.08,301.52,28.0,83.0,77,72,5.22,11.6,['20 Oct 2020 12:23:44']
203,2163355,Hobart,AU,-42.88,147.33,284.31,11.0,52.0,81,90,2.6,5.78,['20 Oct 2020 12:23:44']
204,1269979,Homnābād,IN,17.77,77.13,296.13,23.0,73.0,90,99,4.06,9.02,['20 Oct 2020 12:23:44']
205,4004738,Hostotipaquillo,MX,21.07,-104.07,297.58,24.0,76.0,74,32,0.89,1.98,['20 Oct 2020 12:23:44']
206,3939761,Hualmay,PE,-11.1,-77.61,294.28,21.0,70.0,63,2,3.92,8.71,['20 Oct 2020 12:23:44']
207,361291,Hurghada,EG,27.26,33.81,302.15,29.0,84.0,58,0,2.1,4.67,['20 Oct 2020 12:23:44']
208,2629833,Husavik,IS,66.04,-17.34,276.15,3.0,37.0,59,48,1.5,3.33,['20 Oct 2020 12:23:44']
209,4328254,Iberia,US,29.95,-91.75,297.2,24.0,75.0,83,90,3.6,8.0,['20 Oct 2020 12:23:44']
210,1269811,Idukki,IN,9.85,76.97,293.84,21.0,69.0,96,100,1.14,2.53,['20 Oct 2020 12:23:44']
211,3461370,Imbituba,BR,-28.24,-48.67,301.15,28.0,82.0,61,20,8.2,18.22,['20 Oct 2020 12:23:44']
212,2259655,Impfondo,CG,1.64,18.07,300.25,27.0,81.0,76,79,1.67,3.71,['20 Oct 2020 12:23:44']
213,159134,Inyonga,TZ,-6.72,32.07,300.19,27.0,81.0,39,38,1.46,3.24,['20 Oct 2020 12:23:44']
214,238566,Ippy,CF,6.27,21.22,298.24,25.0,77.0,83,28,0.52,1.16,['20 Oct 2020 12:23:44']
215,3398112,Ipu,BR,-4.32,-40.71,309.76,37.0,98.0,23,1,4.07,9.04,['20 Oct 2020 12:23:44']
216,5983720,Iqaluit,CA,63.75,-68.51,272.09,-1.0,30.0,74,90,1.0,2.22,['20 Oct 2020 12:23:44']
217,3887127,Iquique,CL,-20.22,-70.14,292.15,19.0,66.0,63,90,3.1,6.89,['20 Oct 2020 12:23:44']
218,3381428,Iracoubo,GF,5.48,-53.2,303.75,31.0,87.0,63,16,6.33,14.07,['20 Oct 2020 12:23:44']
219,215771,Isiro,CD,2.77,27.62,293.84,21.0,69.0,96,100,1.17,2.6,['20 Oct 2020 12:23:44']
220,158974,Issenye,TZ,-2.0,34.33,295.14,22.0,72.0,73,85,1.83,4.07,['20 Oct 2020 12:23:44']
221,3397893,Itacoatiara,BR,-3.14,-58.44,310.06,37.0,98.0,33,59,2.56,5.69,['20 Oct 2020 12:23:44']
222,3397967,Itaituba,BR,-4.28,-55.98,312.35,39.0,103.0,27,89,2.67,5.93,['20 Oct 2020 12:23:44']
223,3393692,Itarema,BR,-2.92,-39.92,304.03,31.0,88.0,55,47,9.78,21.73,['20 Oct 2020 12:23:44']
224,3397763,Jacareacanga,BR,-6.22,-57.75,309.51,36.0,97.0,35,96,1.92,4.27,['20 Oct 2020 12:23:44']
225,2287778,Jacqueville,CI,5.21,-4.41,301.15,28.0,82.0,78,40,6.7,14.89,['20 Oct 2020 12:23:44']
226,86049,Jalu,LY,29.03,21.55,299.87,27.0,80.0,41,0,4.62,10.27,['20 Oct 2020 12:23:44']
227,5122534,Jamestown,US,42.1,-79.24,281.59,8.0,47.0,93,90,3.6,8.0,['20 Oct 2020 12:23:44']
228,1642773,Japura,ID,-0.32,102.35,297.87,24.0,76.0,93,36,1.08,2.4,['20 Oct 2020 12:23:44']
229,3397562,Jardim de Piranhas,BR,-6.38,-37.35,311.43,38.0,101.0,16,2,7.07,15.71,['20 Oct 2020 12:23:44']
230,3526538,Jesús Carranza,MX,17.43,-95.03,299.74,27.0,80.0,83,83,3.27,7.27,['20 Oct 2020 12:23:44']
231,333750,Jinka,ET,5.65,36.65,293.04,20.0,68.0,79,27,0.86,1.91,['20 Oct 2020 12:23:44']
232,3397230,José de Freitas,BR,-4.76,-42.58,310.15,37.0,99.0,29,20,3.1,6.89,['20 Oct 2020 12:23:44']
233,373303,Juba,SS,4.85,31.58,297.62,24.0,76.0,84,100,1.61,3.58,['20 Oct 2020 12:23:44']
234,2619251,Juelsminde,DK,55.71,10.02,282.58,9.0,49.0,81,100,5.7,12.67,['20 Oct 2020 12:23:44']
235,3663693,Jutaí,BR,-5.18,-68.9,300.87,28.0,82.0,76,70,1.47,3.27,['20 Oct 2020 12:23:44']
236,233093,Kaabong,UG,3.48,34.15,295.43,22.0,72.0,58,92,4.09,9.09,['20 Oct 2020 12:23:44']
237,195821,Kabarnet,KE,0.49,35.74,291.15,18.0,64.0,72,75,1.5,3.33,['20 Oct 2020 12:23:44']
238,215527,Kabinda,CD,-6.13,24.48,296.62,23.0,74.0,84,81,0.84,1.87,['20 Oct 2020 12:23:44']
239,2335713,Kafanchan,NG,9.58,8.3,300.73,28.0,82.0,56,72,1.01,2.24,['20 Oct 2020 12:23:44']
240,5847411,Kahului,US,20.89,-156.47,294.07,21.0,70.0,77,20,2.1,4.67,['20 Oct 2020 12:23:44']
241,1242110,Kalmunai,LK,7.42,81.82,300.9,28.0,82.0,80,1,1.8,4.0,['20 Oct 2020 12:23:44']
242,923058,Kambove,CD,-10.88,26.6,297.54,24.0,76.0,36,11,1.08,2.4,['20 Oct 2020 12:23:44']
243,214575,Kampene,CD,-3.6,26.67,294.02,21.0,70.0,94,99,1.05,2.33,['20 Oct 2020 12:23:44']
244,933685,Kanye,BW,-24.97,25.33,305.38,32.0,90.0,13,88,2.56,5.69,['20 Oct 2020 12:23:44']
245,730651,Kaolinovo,BG,43.62,27.12,286.5,13.0,56.0,60,3,1.79,3.98,['20 Oct 2020 12:23:44']
246,5848280,Kapaa,US,22.08,-159.32,295.93,23.0,73.0,80,44,4.05,9.0,['20 Oct 2020 12:23:44']
247,372884,Kapoeta,SS,4.77,33.59,301.66,28.0,83.0,55,84,0.49,1.09,['20 Oct 2020 12:23:44']
248,779350,Karasjok,NO,69.47,25.51,273.15,0.0,32.0,96,75,1.5,3.33,['20 Oct 2020 12:23:44']
249,912764,Kasama,ZM,-10.21,31.18,299.25,26.0,79.0,32,46,1.55,3.44,['20 Oct 2020 12:23:44']
250,1280849,Kashgar,CN,39.45,75.98,284.15,11.0,52.0,27,0,4.0,8.89,['20 Oct 2020 12:23:44']
251,928534,Kasungu,MW,-13.03,33.48,299.94,27.0,80.0,32,41,3.62,8.04,['20 Oct 2020 12:23:44']
252,1153035,Kathu,TH,7.92,98.33,301.15,28.0,82.0,94,20,2.58,5.73,['20 Oct 2020 12:23:44']
253,877178,Katima Mulilo,NA,-17.5,24.27,308.13,35.0,95.0,9,0,2.78,6.18,['20 Oct 2020 12:23:44']
254,2287298,Katiola,CI,8.13,-5.1,302.15,29.0,84.0,66,40,2.1,4.67,['20 Oct 2020 12:23:44']
255,1267390,Kavaratti,IN,10.57,72.64,300.75,28.0,82.0,73,98,4.6,10.22,['20 Oct 2020 12:23:44']
256,1640902,Kawalu,ID,-7.38,108.21,296.59,23.0,74.0,91,99,0.33,0.73,['20 Oct 2020 12:23:44']
257,2359608,Kaya,BF,13.09,-1.08,309.23,36.0,97.0,23,65,0.32,0.71,['20 Oct 2020 12:23:44']
258,2455517,Kayes,ML,14.0,-11.0,311.15,38.0,100.0,29,28,4.1,9.11,['20 Oct 2020 12:23:44']
259,5991056,Kenora,CA,49.82,-94.43,270.15,-3.0,27.0,68,75,3.6,8.0,['20 Oct 2020 12:23:44']
260,2455290,Kidal,ML,18.44,1.41,311.24,38.0,101.0,9,0,1.35,3.0,['20 Oct 2020 12:23:44']
261,157738,Kigoma,TZ,-4.88,29.63,297.15,24.0,75.0,83,75,2.6,5.78,['20 Oct 2020 12:23:44']
262,2963295,Killybegs,IE,54.63,-8.45,286.42,13.0,56.0,100,90,4.6,10.22,['20 Oct 2020 12:23:44']
263,3526284,Kinchil,MX,20.92,-89.95,301.61,28.0,83.0,78,75,2.1,4.67,['20 Oct 2020 12:23:44']
264,212902,Kindu,CD,-2.95,25.95,295.83,23.0,73.0,96,99,1.23,2.73,['20 Oct 2020 12:23:44']
265,2645388,Kinloss,GB,57.63,-3.57,284.88,12.0,53.0,87,79,2.6,5.78,['20 Oct 2020 12:23:44']
266,157014,Kisanga,TZ,-7.44,37.7,302.79,29.0,85.0,43,1,3.99,8.87,['20 Oct 2020 12:23:44']
267,212730,Kisangani,CD,0.52,25.2,296.88,24.0,75.0,94,100,0.47,1.04,['20 Oct 2020 12:23:44']
268,55671,Kismayo,SO,-0.36,42.55,299.44,26.0,79.0,78,4,7.34,16.31,['20 Oct 2020 12:23:44']
269,2618795,Klaksvík,FO,62.23,-6.59,278.15,5.0,41.0,80,44,5.1,11.33,['20 Oct 2020 12:23:44']
270,7671223,Kloulklubed,PW,7.04,134.26,298.15,25.0,77.0,83,90,3.58,7.96,['20 Oct 2020 12:23:44']
271,5866583,Saint Paul Harbor,US,57.79,-152.41,279.15,6.0,43.0,60,20,2.6,5.78,['20 Oct 2020 12:23:44']
272,2093685,Kokopo,PG,-4.35,152.26,298.36,25.0,77.0,82,81,1.59,3.53,['20 Oct 2020 12:23:44']
273,2359227,Kombissiri,BF,12.07,-1.34,306.15,33.0,91.0,55,20,2.6,5.78,['20 Oct 2020 12:23:44']
274,306569,Konya Province,TR,38.17,32.5,288.15,15.0,59.0,77,40,5.1,11.33,['20 Oct 2020 12:23:44']
275,1529376,Korla,CN,41.76,86.15,283.15,10.0,50.0,69,0,2.24,4.98,['20 Oct 2020 12:23:44']
276,3381303,Kourou,GF,5.16,-52.65,306.15,33.0,91.0,49,38,5.1,11.33,['20 Oct 2020 12:23:44']
277,2454268,Koutiala,ML,12.39,-5.46,309.41,36.0,97.0,21,0,2.55,5.67,['20 Oct 2020 12:23:44']
278,261814,Koutsouras,GR,35.03,25.95,293.15,20.0,68.0,61,74,5.81,12.91,['20 Oct 2020 12:23:44']
279,986717,Kruisfontein,ZA,-34.0,24.73,289.82,17.0,62.0,71,0,2.24,4.98,['20 Oct 2020 12:23:44']
280,1337607,Kudahuvadhoo,MV,2.67,72.89,301.39,28.0,83.0,79,100,5.81,12.91,['20 Oct 2020 12:23:44']
281,2068110,Kununurra,AU,-15.77,128.73,301.15,28.0,82.0,78,0,2.6,5.78,['20 Oct 2020 12:23:44']
282,371745,Kutum,SD,14.2,24.67,302.65,29.0,85.0,13,9,6.3,14.0,['20 Oct 2020 12:23:44']
283,3480908,La Asuncion,VE,11.03,-63.86,305.15,32.0,90.0,59,0,5.7,12.67,['20 Oct 2020 12:23:44']
284,3678000,La Primavera,CO,5.49,-70.41,305.6,32.0,90.0,59,40,1.65,3.67,['20 Oct 2020 12:23:44']
285,6050066,La Ronge,CA,55.1,-105.28,269.15,-4.0,25.0,68,90,1.5,3.33,['20 Oct 2020 12:23:44']
286,3006414,La Seyne-sur-Mer,FR,43.1,5.88,289.57,17.0,62.0,78,81,5.81,12.91,['20 Oct 2020 12:23:44']
287,3695466,La Unión,PE,-5.4,-80.75,299.51,26.0,79.0,46,0,3.69,8.2,['20 Oct 2020 12:23:44']
288,1733782,Labuan,MY,5.28,115.24,298.43,26.0,78.0,94,20,0.82,1.82,['20 Oct 2020 12:23:44']
289,2332504,Lafiagi,NG,8.87,5.42,306.98,34.0,93.0,47,8,1.57,3.49,['20 Oct 2020 12:23:44']
290,3372964,Lagoa,PT,39.05,-27.98,290.67,18.0,64.0,67,14,11.74,26.09,['20 Oct 2020 12:23:44']
291,5364271,Laguna,US,38.42,-121.42,291.58,18.0,65.0,63,1,1.21,2.69,['20 Oct 2020 12:23:44']
292,3500370,Las Matas de Farfán,DO,18.87,-71.52,302.11,29.0,84.0,58,53,1.02,2.27,['20 Oct 2020 12:23:44']
293,3175096,Laas,IT,46.62,10.7,281.33,8.0,47.0,75,75,4.1,9.11,['20 Oct 2020 12:23:44']
294,3883457,Lebu,CL,-37.62,-73.65,285.42,12.0,54.0,63,0,8.94,19.87,['20 Oct 2020 12:23:44']
295,1264976,Leh,IN,34.17,77.58,277.03,4.0,39.0,45,0,1.12,2.49,['20 Oct 2020 12:23:44']
296,2399831,Lékoni,GA,-1.58,14.26,296.7,23.0,74.0,85,100,2.23,4.96,['20 Oct 2020 12:23:44']
297,2358382,Léo,BF,11.1,-2.1,300.91,28.0,82.0,60,37,2.39,5.31,['20 Oct 2020 12:23:44']
298,933535,Letlhakane,BW,-21.42,25.58,305.68,33.0,91.0,11,1,4.04,8.98,['20 Oct 2020 12:23:44']
299,2229411,Limbe,CM,4.02,9.21,301.01,28.0,82.0,83,75,1.5,3.33,['20 Oct 2020 12:23:44']
300,155921,Liwale,TZ,-9.77,37.93,299.34,26.0,79.0,54,28,3.88,8.62,['20 Oct 2020 12:23:44']
301,258175,Lixouri,GR,38.2,20.43,293.15,20.0,68.0,77,20,4.6,10.22,['20 Oct 2020 12:23:44']
302,3118304,Llanes,ES,43.42,-4.75,292.05,19.0,66.0,79,100,3.13,6.96,['20 Oct 2020 12:23:44']
303,5367788,Lompoc,US,34.64,-120.46,285.58,12.0,54.0,93,90,2.1,4.67,['20 Oct 2020 12:23:44']
304,2729907,Longyearbyen,SJ,78.22,15.64,268.15,-5.0,23.0,79,41,1.5,3.33,['20 Oct 2020 12:23:44']
305,2092164,Lorengau,PG,-2.02,147.27,300.35,27.0,81.0,70,91,1.55,3.44,['20 Oct 2020 12:23:44']
306,2514651,Los Llanos de Aridane,ES,28.66,-17.92,296.23,23.0,74.0,61,40,7.7,17.11,['20 Oct 2020 12:23:44']
307,2258261,Dolisie,CG,-4.2,12.67,297.68,24.0,76.0,83,78,3.04,6.76,['20 Oct 2020 12:23:44']
308,2240449,Luanda,AO,-8.84,13.23,299.15,26.0,79.0,78,40,5.1,11.33,['20 Oct 2020 12:23:44']
309,3347762,Lubango,AO,-14.92,13.49,305.15,32.0,90.0,54,20,5.1,11.33,['20 Oct 2020 12:23:44']
310,3355672,Lüderitz,NA,-26.65,15.16,296.77,24.0,75.0,30,0,15.12,33.6,['20 Oct 2020 12:23:44']
311,3347719,Luena,AO,-11.78,19.92,305.15,32.0,90.0,43,20,2.6,5.78,['20 Oct 2020 12:23:44']
312,3396121,Luís Correia,BR,-2.88,-41.67,303.96,31.0,87.0,56,60,7.93,17.62,['20 Oct 2020 12:23:44']
313,909488,Lukulu,ZM,-14.37,23.24,301.3,28.0,83.0,14,0,2.49,5.53,['20 Oct 2020 12:23:44']
314,210379,Lusambo,CD,-4.97,23.45,293.14,20.0,68.0,94,94,3.31,7.36,['20 Oct 2020 12:23:44']
315,1637001,Luwuk,ID,-0.95,122.79,297.96,25.0,77.0,63,79,2.62,5.82,['20 Oct 2020 12:23:44']
316,229599,Lyantonde,UG,-0.4,31.16,292.35,19.0,67.0,92,100,1.21,2.69,['20 Oct 2020 12:23:44']
317,457714,Madona,LV,56.85,26.22,276.38,3.0,38.0,94,100,1.89,4.2,['20 Oct 2020 12:23:44']
318,3195930,Mahala,BA,44.01,18.26,282.09,9.0,48.0,76,0,1.5,3.33,['20 Oct 2020 12:23:44']
319,934322,Mahébourg,MU,-20.41,57.7,297.15,24.0,75.0,73,40,5.7,12.67,['20 Oct 2020 12:23:44']
320,1337605,Mahibadhoo,MV,3.78,72.97,301.41,28.0,83.0,79,100,5.26,11.69,['20 Oct 2020 12:23:44']
321,2399371,Makokou,GA,0.57,12.86,294.72,22.0,71.0,94,98,0.96,2.13,['20 Oct 2020 12:23:44']
322,6064704,Malartic,CA,48.13,-78.13,275.15,2.0,36.0,100,90,3.6,8.0,['20 Oct 2020 12:23:44']
323,2284647,Man,CI,7.41,-7.55,303.14,30.0,86.0,59,6,1.29,2.87,['20 Oct 2020 12:23:44']
324,3381041,Mana,GF,5.66,-53.78,304.17,31.0,88.0,61,92,5.54,12.31,['20 Oct 2020 12:23:44']
325,3663517,Manaus,BR,-3.1,-60.02,302.17,29.0,84.0,74,75,1.5,3.33,['20 Oct 2020 12:23:44']
326,187896,Mandera,KE,3.94,41.87,306.82,34.0,93.0,34,28,2.37,5.27,['20 Oct 2020 12:23:44']
327,3663503,Manicoré,BR,-5.81,-61.3,307.75,34.0,94.0,42,91,1.35,3.0,['20 Oct 2020 12:23:44']
328,1636308,Manokwari,ID,-0.87,134.08,299.1,26.0,79.0,72,24,1.61,3.58,['20 Oct 2020 12:23:44']
329,1263622,Mānsa,IN,29.98,75.38,296.17,23.0,73.0,19,0,1.45,3.22,['20 Oct 2020 12:23:44']
330,2035836,Manzhouli,CN,49.6,117.43,274.04,1.0,34.0,92,75,6.54,14.53,['20 Oct 2020 12:23:44']
331,3430863,Mar del Plata,AR,-38.0,-57.56,286.65,13.0,56.0,38,97,5.7,12.67,['20 Oct 2020 12:23:44']
332,3395458,Maragogi,BR,-9.01,-35.22,300.23,27.0,81.0,68,37,5.34,11.87,['20 Oct 2020 12:23:44']
333,1701054,Marawi,PH,8.0,124.29,297.59,24.0,76.0,95,100,2.68,5.96,['20 Oct 2020 12:23:44']
334,2158767,Mareeba,AU,-17.0,145.43,293.68,21.0,69.0,88,18,0.5,1.11,['20 Oct 2020 12:23:44']
335,352733,Marsá Maţrūḩ,EG,31.35,27.25,298.15,25.0,77.0,73,75,4.1,9.11,['20 Oct 2020 12:23:44']
336,187585,Marsabit,KE,2.33,37.99,297.74,24.0,76.0,44,14,5.24,11.64,['20 Oct 2020 12:23:44']
337,72181,Marzuq,YE,14.4,46.47,296.46,23.0,74.0,20,42,1.78,3.96,['20 Oct 2020 12:23:44']
338,3996426,Matamoros,MX,25.53,-103.25,297.15,24.0,75.0,25,5,2.0,4.44,['20 Oct 2020 12:23:44']
339,1235846,Matara,LK,5.95,80.54,299.06,26.0,79.0,87,5,4.32,9.6,['20 Oct 2020 12:23:44']
340,6201424,Mataura,NZ,-46.19,168.86,279.82,7.0,44.0,89,96,0.89,1.98,['20 Oct 2020 12:23:44']
341,2409215,Mattru,SL,7.62,-11.83,300.89,28.0,82.0,80,92,2.35,5.22,['20 Oct 2020 12:23:44']
342,2399001,Mayumba,GA,-3.43,10.66,298.52,26.0,78.0,85,99,3.44,7.64,['20 Oct 2020 12:23:44']
343,2312895,Mbandaka,CD,0.05,18.26,298.34,25.0,77.0,79,23,0.74,1.64,['20 Oct 2020 12:23:44']
344,2524170,Messina,IT,38.19,15.55,292.49,19.0,67.0,35,20,2.6,5.78,['20 Oct 2020 12:23:44']
345,1214488,Meulaboh,ID,4.14,96.13,298.8,26.0,78.0,85,42,1.79,3.98,['20 Oct 2020 12:23:44']
346,1059051,Miandrivazo,MG,-19.52,45.47,303.08,30.0,86.0,37,0,4.58,10.18,['20 Oct 2020 12:23:44']
347,153955,Micheweni,TZ,-4.97,39.83,299.03,26.0,79.0,77,8,3.69,8.2,['20 Oct 2020 12:23:44']
348,123941,Mīnāb,IR,27.15,57.08,295.15,22.0,72.0,18,0,2.1,4.67,['20 Oct 2020 12:23:44']
349,3674702,Miranda,CO,3.25,-76.23,302.09,29.0,84.0,54,40,2.1,4.67,['20 Oct 2020 12:23:44']
350,1738050,Marabu,MY,4.41,114.01,298.42,25.0,77.0,94,20,1.5,3.33,['20 Oct 2020 12:23:44']
351,921786,Mitsamiouli,KM,-11.38,43.28,299.61,27.0,80.0,74,6,2.19,4.87,['20 Oct 2020 12:23:44']
352,2214827,Mizdah,LY,31.45,12.98,291.78,19.0,66.0,34,0,3.56,7.91,['20 Oct 2020 12:23:44']
353,1024312,Mocuba,MZ,-16.84,36.99,300.37,27.0,81.0,64,50,3.82,8.49,['20 Oct 2020 12:23:44']
354,53654,Mogadishu,SO,2.04,45.34,299.55,27.0,80.0,82,1,7.21,16.02,['20 Oct 2020 12:23:44']
355,2274895,Monrovia,LR,6.3,-10.8,303.15,30.0,86.0,74,75,3.6,8.0,['20 Oct 2020 12:23:44']
356,2265888,Montemor-o-Novo,PT,38.65,-8.21,291.03,18.0,64.0,93,75,11.8,26.22,['20 Oct 2020 12:23:44']
357,933288,Mopipi,BW,-21.18,24.88,304.91,32.0,89.0,12,0,0.49,1.09,['20 Oct 2020 12:23:44']
358,3430545,Morón,AR,-34.65,-58.62,287.8,14.0,58.0,58,100,6.7,14.89,['20 Oct 2020 12:23:44']
359,2256895,Mossendjo,CG,-2.95,12.73,295.39,22.0,72.0,96,100,1.61,3.58,['20 Oct 2020 12:23:44']
360,2156643,Mount Gambier,AU,-37.83,140.77,280.15,7.0,45.0,93,90,2.1,4.67,['20 Oct 2020 12:23:44']
361,2065594,Mount Isa,AU,-20.73,139.5,300.15,27.0,81.0,26,25,2.6,5.78,['20 Oct 2020 12:23:44']
362,2427336,Moussoro,TD,13.64,16.49,308.82,36.0,96.0,10,0,3.97,8.82,['20 Oct 2020 12:23:44']
363,3394326,Muaná,BR,-1.53,-49.22,307.76,34.0,94.0,45,44,3.99,8.87,['20 Oct 2020 12:23:44']
364,2297810,Mumford,GH,5.26,-0.76,299.37,26.0,79.0,84,77,6.66,14.8,['20 Oct 2020 12:23:44']
365,3115824,Muros,ES,42.78,-9.06,289.56,17.0,62.0,83,100,1.79,3.98,['20 Oct 2020 12:23:44']
366,884927,Mutoko,ZW,-17.4,32.23,298.99,26.0,79.0,27,0,2.6,5.78,['20 Oct 2020 12:23:44']
367,902721,Mwense,ZM,-10.38,28.7,301.2,28.0,82.0,32,76,2.36,5.24,['20 Oct 2020 12:23:44']
368,2541479,Nador,MA,35.17,-2.93,297.15,24.0,75.0,69,57,3.1,6.89,['20 Oct 2020 12:23:44']
369,103630,Najrān,SA,17.49,44.13,297.15,24.0,75.0,22,27,2.1,4.67,['20 Oct 2020 12:23:44']
370,2214432,Nālūt,LY,30.33,10.85,294.43,21.0,70.0,25,2,4.32,9.6,['20 Oct 2020 12:23:44']
371,184570,Namanga,KE,-2.54,36.79,297.58,24.0,76.0,48,95,7.77,17.27,['20 Oct 2020 12:23:44']
372,3347019,Mossamedes,AO,-15.2,12.15,295.15,22.0,72.0,78,90,8.7,19.33,['20 Oct 2020 12:23:44']
373,3421765,Nanortalik,GL,60.14,-45.24,276.19,3.0,37.0,86,98,1.18,2.62,['20 Oct 2020 12:23:44']
374,4944903,Nantucket,US,41.28,-70.1,289.15,16.0,61.0,87,90,4.6,10.22,['20 Oct 2020 12:23:44']
375,1855612,Nara,JP,34.69,135.8,286.8,14.0,57.0,76,0,1.15,2.56,['20 Oct 2020 12:23:44']
376,227904,Nebbi,UG,2.48,31.09,293.45,21.0,69.0,85,98,1.03,2.29,['20 Oct 2020 12:23:44']
377,3430443,Necochea,AR,-38.55,-58.74,288.53,16.0,60.0,44,62,4.53,10.07,['20 Oct 2020 12:23:44']
378,2427036,Ngama,TD,11.78,17.17,306.49,33.0,92.0,16,0,4.4,9.78,['20 Oct 2020 12:23:44']
379,151567,Nguruka,TZ,-5.11,31.04,296.17,23.0,73.0,66,87,1.69,3.76,['20 Oct 2020 12:23:44']
380,3393929,Nhamundá,BR,-2.19,-56.71,310.0,37.0,98.0,33,45,4.43,9.84,['20 Oct 2020 12:23:44']
381,2311968,Nioki,CD,-2.72,17.68,296.7,23.0,74.0,94,99,1.57,3.49,['20 Oct 2020 12:23:44']
382,2452655,Niono,ML,14.25,-5.99,310.63,37.0,99.0,13,0,3.08,6.84,['20 Oct 2020 12:23:44']
383,3393922,Nísia Floresta,BR,-6.09,-35.21,303.15,30.0,86.0,55,40,7.2,16.0,['20 Oct 2020 12:23:44']
384,933211,Nokaneng,BW,-19.67,22.27,305.38,32.0,90.0,12,63,1.63,3.62,['20 Oct 2020 12:23:44']
385,2377457,Nouadhibou,MR,20.93,-17.03,302.15,29.0,84.0,48,44,7.7,17.11,['20 Oct 2020 12:23:44']
386,2357163,Nouna,BF,12.73,-3.87,309.29,36.0,97.0,22,0,2.16,4.8,['20 Oct 2020 12:23:44']
387,3456102,Nova Viçosa,BR,-17.89,-39.37,299.46,26.0,79.0,70,99,4.22,9.38,['20 Oct 2020 12:23:44']
388,2283016,Odienné,CI,9.51,-7.57,301.58,28.0,83.0,69,75,2.53,5.62,['20 Oct 2020 12:23:44']
389,53372,Oodweyne,SO,9.41,45.06,298.63,26.0,78.0,32,0,7.65,17.0,['20 Oct 2020 12:23:44']
390,3373652,Oistins,BB,13.07,-59.53,304.15,31.0,88.0,70,75,5.1,11.33,['20 Oct 2020 12:23:44']
391,3414079,Olafsvik,IS,64.89,-23.71,277.71,4.0,40.0,93,100,5.69,12.64,['20 Oct 2020 12:23:44']
392,2396853,Omboué,GA,-1.57,9.26,298.66,26.0,78.0,83,96,3.49,7.76,['20 Oct 2020 12:23:44']
393,3354247,Ondangwa,NA,-17.92,15.95,303.65,31.0,87.0,12,8,2.77,6.16,['20 Oct 2020 12:23:44']
394,3346821,Ondjiva,AO,-17.07,15.73,312.15,39.0,102.0,8,20,2.1,4.67,['20 Oct 2020 12:23:44']
395,3354077,Opuwo,NA,-18.06,13.84,302.86,29.0,85.0,15,9,7.94,17.64,['20 Oct 2020 12:23:44']
396,3354071,Oranjemund,NA,-28.55,16.43,289.14,16.0,61.0,72,0,10.45,23.22,['20 Oct 2020 12:23:44']
397,3577154,Oranjestad,AW,12.52,-70.03,299.15,26.0,79.0,83,40,1.5,3.33,['20 Oct 2020 12:23:44']
398,2686469,Örnsköldsvik,SE,63.29,18.72,272.15,-1.0,30.0,92,90,1.5,3.33,['20 Oct 2020 12:23:44']
399,1520316,Oskemen,KZ,49.96,82.61,273.15,0.0,32.0,70,8,1.88,4.18,['20 Oct 2020 12:23:44']
400,6094665,Osoyoos,CA,49.03,-119.45,280.93,8.0,46.0,75,82,0.24,0.53,['20 Oct 2020 12:23:44']
401,514171,Ostrov,RU,57.34,28.35,273.15,0.0,32.0,77,20,1.0,2.22,['20 Oct 2020 12:23:44']
402,5130076,Oswego,US,43.45,-76.15,283.21,10.0,50.0,87,90,2.6,5.78,['20 Oct 2020 12:23:44']
403,2440371,Ouallam,NE,14.32,2.09,311.27,38.0,101.0,14,3,2.68,5.96,['20 Oct 2020 12:23:44']
404,2255542,Owando,CG,-0.48,15.9,296.8,24.0,75.0,91,91,0.91,2.02,['20 Oct 2020 12:23:44']
405,1633419,Padang,ID,-0.95,100.35,299.58,27.0,80.0,75,69,1.93,4.29,['20 Oct 2020 12:23:44']
406,3694112,Paita,PE,-5.09,-81.11,297.15,24.0,75.0,69,0,6.7,14.89,['20 Oct 2020 12:23:44']
407,1734313,Paka,MY,4.64,103.44,298.94,26.0,78.0,94,22,0.4,0.89,['20 Oct 2020 12:23:44']
408,1260716,Pāli,IN,25.77,73.33,303.76,31.0,87.0,42,20,2.7,6.0,['20 Oct 2020 12:23:44']
409,3474574,Palmas,BR,-10.21,-48.36,308.15,35.0,95.0,41,40,4.6,10.22,['20 Oct 2020 12:23:44']
410,3393065,Parambu,BR,-6.21,-40.69,309.46,36.0,97.0,24,15,3.98,8.84,['20 Oct 2020 12:23:44']
411,3841956,Paraná,AR,-31.73,-60.52,287.01,14.0,57.0,93,100,7.23,16.07,['20 Oct 2020 12:23:44']
412,4717644,Parker,US,32.77,-97.8,296.15,23.0,73.0,73,1,5.7,12.67,['20 Oct 2020 12:23:44']
413,1260222,Pārvatipuram,IN,18.78,83.43,298.33,25.0,77.0,82,90,1.39,3.09,['20 Oct 2020 12:23:44']
414,3703239,Pedasí,PA,7.53,-80.03,300.43,27.0,81.0,81,78,7.17,15.93,['20 Oct 2020 12:23:44']
415,2640377,Penzance,GB,50.12,-5.54,287.1,14.0,57.0,93,40,9.3,20.67,['20 Oct 2020 12:23:44']
416,3170694,Pinerolo,IT,44.88,7.35,285.36,12.0,54.0,95,95,0.87,1.93,['20 Oct 2020 12:23:44']
417,3391889,Pitimbu,BR,-7.47,-34.81,303.15,30.0,86.0,55,40,7.2,16.0,['20 Oct 2020 12:23:44']
418,964712,Plettenberg Bay,ZA,-34.05,23.37,288.12,15.0,59.0,69,25,1.94,4.31,['20 Oct 2020 12:23:44']
419,1282898,Pokhara,NP,28.23,83.98,291.79,19.0,66.0,68,9,1.75,3.89,['20 Oct 2020 12:23:44']
420,150689,Poli,TZ,-3.33,36.8,300.06,27.0,80.0,47,75,3.6,8.0,['20 Oct 2020 12:23:44']
421,3391571,Pombal,BR,-6.77,-37.8,311.6,38.0,101.0,15,0,6.33,14.07,['20 Oct 2020 12:23:44']
422,3372783,Ponta Delgada,PT,37.73,-25.67,291.15,18.0,64.0,63,40,8.2,18.22,['20 Oct 2020 12:23:44']
423,2264557,Ponta do Sol,PT,32.67,-17.1,294.09,21.0,70.0,44,20,4.6,10.22,['20 Oct 2020 12:23:44']
424,506232,Porosozero,RU,62.72,32.73,272.24,-1.0,30.0,97,100,3.0,6.67,['20 Oct 2020 12:23:44']
425,964432,Port Alfred,ZA,-33.59,26.89,289.72,17.0,62.0,68,82,7.52,16.71,['20 Oct 2020 12:23:44']
426,2063056,Port Augusta,AU,-32.5,137.77,287.44,14.0,58.0,67,27,3.6,8.0,['20 Oct 2020 12:23:44']
427,1259385,Port Blair,IN,11.67,92.75,300.65,27.0,81.0,84,28,5.56,12.36,['20 Oct 2020 12:23:44']
428,964420,Port Elizabeth,ZA,-33.92,25.57,290.15,17.0,63.0,72,10,8.7,19.33,['20 Oct 2020 12:23:44']
429,6111867,Port Hawkesbury,CA,45.62,-61.35,290.89,18.0,64.0,88,90,3.6,8.0,['20 Oct 2020 12:23:44']
430,2063042,Port Hedland,AU,-20.32,118.57,295.15,22.0,72.0,100,24,3.6,8.0,['20 Oct 2020 12:23:44']
431,2396518,Port-Gentil,GA,-0.72,8.78,302.15,29.0,84.0,74,40,6.2,13.78,['20 Oct 2020 12:23:44']
432,3452711,Porto Nacional,BR,-10.71,-48.42,308.15,35.0,95.0,41,40,4.6,10.22,['20 Oct 2020 12:23:44']
433,2392087,Porto-Novo,BJ,6.5,2.6,302.15,29.0,84.0,79,20,6.7,14.89,['20 Oct 2020 12:23:44']
434,2138555,Poum,NC,-20.23,164.02,296.63,23.0,74.0,70,0,2.92,6.49,['20 Oct 2020 12:23:44']
435,3374333,Praia,CV,14.92,-23.51,306.15,33.0,91.0,52,99,5.7,12.67,['20 Oct 2020 12:23:44']
436,3543498,Primero de Enero,CU,21.95,-78.43,301.15,28.0,82.0,83,75,2.6,5.78,['20 Oct 2020 12:23:44']
437,6113466,Princeville,CA,45.77,-61.3,290.81,18.0,64.0,88,90,3.6,8.0,['20 Oct 2020 12:23:44']
438,1630639,Pringsewu,ID,-5.36,104.97,296.97,24.0,75.0,91,100,1.68,3.73,['20 Oct 2020 12:23:44']
439,3693345,Pucallpa,PE,-8.38,-74.55,305.15,32.0,90.0,62,75,4.1,9.11,['20 Oct 2020 12:23:44']
440,3652764,Puerto Ayora,EC,-0.74,-90.35,296.04,23.0,73.0,73,75,4.1,9.11,['20 Oct 2020 12:23:44']
441,3652758,Puerto Baquerizo Moreno,EC,-0.9,-89.6,296.15,23.0,73.0,88,75,7.2,16.0,['20 Oct 2020 12:23:44']
442,2512186,Puerto del Rosario,ES,28.5,-13.86,301.15,28.0,82.0,58,40,7.7,17.11,['20 Oct 2020 12:23:44']
443,3520994,Puerto Escondido,MX,15.85,-97.07,301.15,28.0,82.0,78,20,2.6,5.78,['20 Oct 2020 12:23:44']
444,1692685,Puerto Princesa City,PH,9.74,118.74,299.15,26.0,79.0,88,90,4.1,9.11,['20 Oct 2020 12:23:44']
445,3874787,Punta Arenas,CL,-53.15,-70.92,282.09,9.0,48.0,45,75,9.8,21.78,['20 Oct 2020 12:23:44']
446,3931223,Puquio,PE,-14.7,-74.13,292.01,19.0,66.0,25,0,4.02,8.93,['20 Oct 2020 12:23:44']
447,1259184,Puri,IN,19.8,85.85,300.15,27.0,81.0,94,75,2.1,4.67,['20 Oct 2020 12:23:44']
448,3420768,Qasigiannguit,GL,68.82,-51.19,277.15,4.0,39.0,80,75,5.7,12.67,['20 Oct 2020 12:23:44']
449,236524,Rafai,CF,4.95,23.92,295.9,23.0,73.0,92,79,1.75,3.89,['20 Oct 2020 12:23:44']
450,368246,Raja,SS,8.46,25.68,296.71,23.0,74.0,83,30,0.65,1.44,['20 Oct 2020 12:23:44']
451,1733502,Ranau,MY,5.95,116.66,297.11,24.0,75.0,88,20,2.6,5.78,['20 Oct 2020 12:23:44']
452,1150965,Ranong,TH,9.97,98.63,298.9,26.0,78.0,83,13,0.53,1.18,['20 Oct 2020 12:23:44']
453,3839307,Rawson,AR,-43.3,-65.1,287.45,14.0,58.0,37,46,6.3,14.0,['20 Oct 2020 12:23:44']
454,2222439,Rey Bouba,CM,8.67,14.18,301.79,29.0,84.0,50,1,1.82,4.04,['20 Oct 2020 12:23:44']
455,2263905,Ribeira Brava,PT,32.65,-17.07,294.04,21.0,70.0,44,20,4.6,10.22,['20 Oct 2020 12:23:44']
456,3372707,Ribeira Grande,PT,38.52,-28.7,291.15,18.0,64.0,68,40,2.6,5.78,['20 Oct 2020 12:23:44']
457,4030556,Rikitea,PF,-23.12,-134.97,296.12,23.0,73.0,78,3,5.83,12.96,['20 Oct 2020 12:23:44']
458,4218882,Rincon,US,32.3,-81.24,297.91,25.0,77.0,83,90,3.1,6.89,['20 Oct 2020 12:23:44']
459,3451138,Rio Grande,BR,-32.03,-52.1,294.82,22.0,71.0,81,99,2.24,4.98,['20 Oct 2020 12:23:44']
460,3670745,Riohacha,CO,11.54,-72.91,303.57,31.0,87.0,64,82,3.33,7.4,['20 Oct 2020 12:23:44']
461,108410,Riyadh,SA,24.69,46.72,300.15,27.0,81.0,14,0,3.1,6.89,['20 Oct 2020 12:23:44']
462,3577430,Road Town,VG,18.42,-64.62,302.8,29.0,85.0,70,40,4.1,9.11,['20 Oct 2020 12:23:44']
463,2274275,Robertsport,LR,6.75,-11.37,299.6,27.0,80.0,82,100,4.72,10.49,['20 Oct 2020 12:23:44']
464,3440777,Rocha,UY,-34.48,-54.33,282.93,10.0,50.0,95,100,5.58,12.4,['20 Oct 2020 12:23:44']
465,3353383,Rundu,NA,-17.93,19.77,303.84,31.0,87.0,12,8,2.73,6.07,['20 Oct 2020 12:23:44']
466,3670513,Sabanagrande,CO,10.79,-74.76,302.15,29.0,84.0,74,75,1.5,3.33,['20 Oct 2020 12:23:44']
467,1214026,Sabang,ID,5.89,95.32,301.25,28.0,83.0,77,83,4.54,10.09,['20 Oct 2020 12:23:44']
468,118063,Sabzawār,IR,36.21,57.68,292.15,19.0,66.0,17,0,3.1,6.89,['20 Oct 2020 12:23:44']
469,5546220,Saint George,US,37.1,-113.58,288.15,15.0,59.0,21,1,1.5,3.33,['20 Oct 2020 12:23:44']
470,6137462,Saint-Augustin,CA,51.23,-58.65,280.97,8.0,46.0,81,100,3.44,7.64,['20 Oct 2020 12:23:44']
471,3579925,St. George's,GD,12.06,-61.75,304.15,31.0,88.0,66,20,7.7,17.11,['20 Oct 2020 12:23:44']
472,6690296,Saint-Joseph,RE,-21.37,55.62,294.48,21.0,70.0,73,35,1.0,2.22,['20 Oct 2020 12:23:44']
473,2978072,Saint-Médard-en-Jalles,FR,44.9,-0.72,289.38,16.0,61.0,93,100,5.7,12.67,['20 Oct 2020 12:23:44']
474,935215,Saint-Philippe,RE,-21.36,55.77,294.43,21.0,70.0,73,38,1.0,2.22,['20 Oct 2020 12:23:44']
475,935214,Saint-Pierre,RE,-21.34,55.48,294.93,22.0,71.0,73,39,1.0,2.22,['20 Oct 2020 12:23:44']
476,2295684,Salaga,GH,8.55,-0.52,303.38,30.0,86.0,64,3,1.85,4.11,['20 Oct 2020 12:23:44']
477,286621,Salalah,OM,17.02,54.09,303.15,30.0,86.0,45,66,1.0,2.22,['20 Oct 2020 12:23:44']
478,3361934,Saldanha,ZA,-33.01,17.94,291.15,18.0,64.0,52,0,7.7,17.11,['20 Oct 2020 12:23:44']
479,899274,Samfya,ZM,-11.36,29.56,300.2,27.0,81.0,32,41,0.66,1.47,['20 Oct 2020 12:23:44']
480,3670218,San Andrés,CO,12.58,-81.7,304.15,31.0,88.0,74,40,2.1,4.67,['20 Oct 2020 12:23:44']
481,2511440,San Bartolomé de Tirajana,ES,27.92,-15.57,301.16,28.0,82.0,49,40,6.2,13.78,['20 Oct 2020 12:23:44']
482,3628473,San Cristobal,VE,7.77,-72.22,305.15,32.0,90.0,49,40,3.1,6.89,['20 Oct 2020 12:23:44']
483,5392171,San Jose,US,37.34,-121.89,290.76,18.0,64.0,72,20,0.42,0.93,['20 Oct 2020 12:23:44']
484,4726521,San Patricio,US,28.02,-97.52,302.48,29.0,85.0,66,75,3.6,8.0,['20 Oct 2020 12:23:44']
485,5392593,San Ramon,US,37.78,-121.98,290.46,17.0,63.0,55,1,1.5,3.33,['20 Oct 2020 12:23:44']
486,2282006,San-Pédro,CI,4.75,-6.64,299.56,27.0,80.0,77,95,3.61,8.02,['20 Oct 2020 12:23:44']
487,3904906,Santa Cruz de la Sierra,BO,-17.8,-63.17,306.15,33.0,91.0,46,40,8.7,19.33,['20 Oct 2020 12:23:44']
488,3662489,Santa Isabel Rio Negro,BR,-0.41,-65.02,308.81,36.0,96.0,43,70,1.77,3.93,['20 Oct 2020 12:23:44']
489,3450083,Santa Maria,BR,-29.68,-53.81,303.44,31.0,87.0,48,0,4.41,9.8,['20 Oct 2020 12:23:44']
490,3389361,Santa Quitéria,BR,-4.33,-40.16,311.45,38.0,101.0,18,3,3.94,8.76,['20 Oct 2020 12:23:44']
491,3492908,Santo Domingo,DO,18.5,-69.99,303.83,31.0,87.0,70,40,2.35,5.22,['20 Oct 2020 12:23:44']
492,3374210,São Filipe,CV,14.9,-24.5,303.52,31.0,87.0,54,85,3.42,7.6,['20 Oct 2020 12:23:44']
493,3662342,São Gabriel da Cachoeira,BR,-0.13,-67.09,308.2,35.0,95.0,45,73,1.15,2.56,['20 Oct 2020 12:23:44']
494,3388760,São Geraldo do Araguaia,BR,-6.4,-48.55,308.67,36.0,96.0,31,100,2.94,6.53,['20 Oct 2020 12:23:44']
495,3448903,São João da Barra,BR,-21.64,-41.05,299.15,26.0,79.0,65,75,7.7,17.11,['20 Oct 2020 12:23:44']
496,3388456,São José da Coroa Grande,BR,-8.9,-35.15,300.47,27.0,81.0,66,41,5.04,11.2,['20 Oct 2020 12:23:44']
497,3448455,São Miguel do Araguaia,BR,-13.28,-50.16,309.5,36.0,97.0,30,96,1.0,2.22,['20 Oct 2020 12:23:44']
498,2355869,Sapouy,BF,11.55,-1.77,300.62,27.0,81.0,56,29,5.14,11.42,['20 Oct 2020 12:23:44']
499,1257277,Sarāhan,IN,31.52,77.8,282.89,10.0,50.0,50,0,1.64,3.64,['20 Oct 2020 12:23:44']
500,2281951,Sassandra,CI,4.95,-6.08,299.32,26.0,79.0,79,97,3.57,7.93,['20 Oct 2020 12:23:44']
501,2638324,Scunthorpe,GB,53.58,-0.65,289.85,17.0,62.0,77,40,5.7,12.67,['20 Oct 2020 12:23:44']
502,1627877,Sembakung,ID,3.82,117.25,297.38,24.0,76.0,91,96,0.51,1.13,['20 Oct 2020 12:23:44']
503,3447854,Senador Canedo,BR,-16.71,-49.09,300.15,27.0,81.0,61,75,2.1,4.67,['20 Oct 2020 12:23:44']
504,3387928,Senador José Porfírio,BR,-2.59,-51.95,308.3,35.0,95.0,43,66,1.24,2.76,['20 Oct 2020 12:23:44']
505,5272899,Sheboygan,US,43.73,-87.93,279.38,6.0,43.0,65,1,2.6,5.78,['20 Oct 2020 12:23:44']
506,6145890,Shelburne,CA,44.08,-80.2,280.82,8.0,46.0,81,90,2.1,4.67,['20 Oct 2020 12:23:44']
507,150006,Shinyanga,TZ,-3.67,33.43,299.2,26.0,79.0,49,81,2.7,6.0,['20 Oct 2020 12:23:44']
508,493160,Sibay,RU,52.72,58.67,278.04,5.0,41.0,71,79,4.43,9.84,['20 Oct 2020 12:23:44']
509,1213855,Sibolga,ID,1.74,98.78,298.98,26.0,78.0,79,66,1.37,3.04,['20 Oct 2020 12:23:44']
510,3380290,Sinnamary,GF,5.38,-52.95,304.06,31.0,88.0,58,44,6.18,13.73,['20 Oct 2020 12:23:44']
511,3419842,Sisimiut,GL,66.94,-53.67,275.28,2.0,36.0,94,100,5.64,12.53,['20 Oct 2020 12:23:44']
512,777682,Skjervøy,NO,70.03,20.97,272.15,-1.0,30.0,80,35,8.7,19.33,['20 Oct 2020 12:23:44']
513,2450849,Sokolo,ML,14.73,-6.12,310.97,38.0,100.0,11,0,2.36,5.24,['20 Oct 2020 12:23:44']
514,3108747,Solsona,ES,41.99,1.52,288.52,16.0,60.0,83,100,3.13,6.96,['20 Oct 2020 12:23:44']
515,877401,Songea,TZ,-10.68,35.65,301.15,28.0,82.0,42,20,6.2,13.78,['20 Oct 2020 12:23:44']
516,3137469,Sørland,NO,67.67,12.69,278.15,5.0,41.0,75,75,5.7,12.67,['20 Oct 2020 12:23:44']
517,933995,Souillac,MU,-20.52,57.52,297.15,24.0,75.0,73,40,5.7,12.67,['20 Oct 2020 12:23:44']
518,2236967,Soyo,AO,-6.13,12.37,302.15,29.0,84.0,66,75,4.1,9.11,['20 Oct 2020 12:23:44']
519,4223848,Spalding,US,33.27,-84.28,295.74,23.0,73.0,68,90,2.1,4.67,['20 Oct 2020 12:23:44']
520,1255619,Srīvardhan,IN,18.03,73.02,299.4,26.0,79.0,88,95,0.44,0.98,['20 Oct 2020 12:23:44']
521,1258916,Srivilliputtur,IN,9.51,77.63,300.15,27.0,81.0,88,75,2.11,4.69,['20 Oct 2020 12:23:44']
522,3667773,Suárez,CO,2.95,-76.7,302.04,29.0,84.0,86,76,1.47,3.27,['20 Oct 2020 12:23:44']
523,1255434,Sundarnagar,IN,31.53,76.88,290.27,17.0,63.0,29,0,2.3,5.11,['20 Oct 2020 12:23:44']
524,286245,Sur,OM,22.57,59.53,297.55,24.0,76.0,61,0,2.17,4.82,['20 Oct 2020 12:23:44']
525,2281120,Tabou,CI,4.42,-7.35,299.44,26.0,79.0,78,95,3.63,8.07,['20 Oct 2020 12:23:44']
526,1684803,Tabuk,PH,17.42,121.44,297.27,24.0,75.0,92,100,6.06,13.47,['20 Oct 2020 12:23:44']
527,3165993,Taggia,IT,43.85,7.85,290.83,18.0,64.0,63,40,3.6,8.0,['20 Oct 2020 12:23:44']
528,1684245,Tagusao,PH,9.19,117.81,299.79,27.0,80.0,83,100,3.36,7.47,['20 Oct 2020 12:23:44']
529,2439376,Tahoua,NE,14.89,5.27,310.15,37.0,99.0,23,20,2.1,4.67,['20 Oct 2020 12:23:44']
530,347634,Ţahţā,EG,26.77,31.5,307.15,34.0,93.0,18,0,3.6,8.0,['20 Oct 2020 12:23:44']
531,2294915,Takoradze,GH,4.88,-1.76,299.45,26.0,79.0,85,79,5.15,11.44,['20 Oct 2020 12:23:44']
532,3870243,Taltal,CL,-25.4,-70.48,292.72,19.0,67.0,51,16,2.13,4.73,['20 Oct 2020 12:23:44']
533,2244991,Tambacounda,SN,13.75,-13.76,311.15,38.0,100.0,27,57,2.1,4.67,['20 Oct 2020 12:23:44']
534,2450173,Taoudenni,ML,22.68,-3.98,307.44,34.0,94.0,12,0,4.97,11.04,['20 Oct 2020 12:23:44']
535,3424607,Tasiilaq,GL,65.61,-37.64,275.15,2.0,36.0,69,75,2.1,4.67,['20 Oct 2020 12:23:44']
536,4033557,Tautira,PF,-17.73,-149.15,297.09,24.0,75.0,69,20,2.6,5.78,['20 Oct 2020 12:23:44']
537,1734199,Tawao,MY,4.25,117.89,298.15,25.0,77.0,94,20,1.0,2.22,['20 Oct 2020 12:23:44']
538,2396253,Tchibanga,GA,-2.85,11.03,296.84,24.0,75.0,92,95,2.27,5.04,['20 Oct 2020 12:23:44']
539,2510573,Teguise,ES,29.06,-13.56,299.15,26.0,79.0,69,20,9.3,20.67,['20 Oct 2020 12:23:44']
540,1185095,Teknāf,BD,20.86,92.31,299.54,27.0,80.0,85,75,4.81,10.69,['20 Oct 2020 12:23:44']
541,2294700,Tema,GH,5.67,-0.02,302.15,29.0,84.0,70,20,8.2,18.22,['20 Oct 2020 12:23:44']
542,2294665,Teshie,GH,5.58,-0.11,302.15,29.0,84.0,70,20,8.2,18.22,['20 Oct 2020 12:23:44']
543,2449893,Tessalit,ML,20.2,1.01,309.05,36.0,97.0,10,0,3.62,8.04,['20 Oct 2020 12:23:44']
544,2438823,Tessaoua,NE,13.76,7.99,308.26,35.0,95.0,10,0,2.65,5.89,['20 Oct 2020 12:23:44']
545,1026014,Tete,MZ,-16.16,33.59,307.87,34.0,94.0,21,25,3.78,8.4,['20 Oct 2020 12:23:44']
546,3573374,The Valley,AI,18.22,-63.06,302.51,29.0,85.0,74,20,3.1,6.89,['20 Oct 2020 12:23:44']
547,1337610,Thinadhoo,MV,0.53,72.93,301.59,28.0,83.0,77,27,5.29,11.76,['20 Oct 2020 12:23:44']
548,1150154,Thoen,TH,17.61,99.22,294.35,21.0,70.0,91,97,1.07,2.38,['20 Oct 2020 12:23:44']
549,2221530,Tibati,CM,6.47,12.63,297.13,24.0,75.0,64,19,2.47,5.49,['20 Oct 2020 12:23:44']
550,2476660,Tigzirt,DZ,36.89,4.12,297.1,24.0,75.0,43,1,2.33,5.18,['20 Oct 2020 12:23:44']
551,2527087,Tiznit Province,MA,29.58,-9.5,302.06,29.0,84.0,23,47,6.21,13.8,['20 Oct 2020 12:23:44']
552,3869716,Tocopilla,CL,-22.09,-70.2,292.83,19.0,67.0,49,8,2.07,4.6,['20 Oct 2020 12:23:44']
553,2449066,Tombouctou,ML,20.0,-3.0,308.09,35.0,95.0,11,0,3.26,7.24,['20 Oct 2020 12:23:44']
554,6167817,Torbay,CA,47.67,-52.73,289.23,16.0,61.0,67,75,7.2,16.0,['20 Oct 2020 12:23:44']
555,365742,Torit,SS,4.41,32.57,296.91,24.0,75.0,84,100,1.24,2.76,['20 Oct 2020 12:23:44']
556,2510245,Torrox,ES,36.76,-3.95,293.1,20.0,68.0,75,92,0.45,1.0,['20 Oct 2020 12:23:44']
557,3386213,Touros,BR,-5.2,-35.46,303.15,30.0,86.0,55,40,7.2,16.0,['20 Oct 2020 12:23:44']
558,3386177,Trairi,BR,-3.28,-39.27,303.34,30.0,86.0,55,51,8.34,18.53,['20 Oct 2020 12:23:44']
559,3446038,Trindade,BR,-16.65,-49.49,300.15,27.0,81.0,61,75,2.1,4.67,['20 Oct 2020 12:23:44']
560,1055059,Tsaratanana,MG,-16.78,47.65,298.78,26.0,78.0,54,42,4.87,10.82,['20 Oct 2020 12:23:44']
561,2273435,Tubmanburg,LR,6.87,-10.82,299.81,27.0,80.0,85,99,2.22,4.93,['20 Oct 2020 12:23:44']
562,3385980,Tucumã,BR,-0.18,-50.05,306.06,33.0,91.0,53,40,4.56,10.13,['20 Oct 2020 12:23:44']
563,2102384,Tulagi,SB,-9.1,160.15,297.15,24.0,75.0,88,40,1.0,2.22,['20 Oct 2020 12:23:44']
564,1254046,Tura,IN,25.52,90.22,296.29,23.0,74.0,85,4,1.57,3.49,['20 Oct 2020 12:23:44']
565,584792,Türkan,AZ,40.36,50.22,288.15,15.0,59.0,77,61,7.2,16.0,['20 Oct 2020 12:23:44']
566,3385899,Tutóia,BR,-2.76,-42.27,303.23,30.0,86.0,60,55,7.42,16.49,['20 Oct 2020 12:23:44']
567,364933,Umm Kaddadah,SD,13.6,26.69,306.87,34.0,93.0,10,0,6.89,15.31,['20 Oct 2020 12:23:44']
568,100926,Umluj,SA,25.02,37.27,300.54,27.0,81.0,60,0,0.93,2.07,['20 Oct 2020 12:23:44']
569,945945,Upington,ZA,-28.45,21.26,296.15,23.0,73.0,8,0,5.1,11.33,['20 Oct 2020 12:23:44']
570,149172,Urambo,TZ,-5.07,32.05,297.57,24.0,76.0,57,90,0.99,2.2,['20 Oct 2020 12:23:44']
571,2319668,Uromi,NG,6.7,6.33,298.21,25.0,77.0,87,26,0.31,0.69,['20 Oct 2020 12:23:44']
572,3385670,Urucará,BR,-2.54,-57.76,311.44,38.0,101.0,29,77,3.07,6.82,['20 Oct 2020 12:23:44']
573,3833367,Ushuaia,AR,-54.8,-68.3,280.15,7.0,45.0,56,40,10.3,22.89,['20 Oct 2020 12:23:44']
574,2280045,Vavoua,CI,7.38,-6.48,302.23,29.0,84.0,68,22,0.88,1.96,['20 Oct 2020 12:23:44']
575,3650273,Velasco Ibarra,EC,-1.05,-79.62,304.03,31.0,88.0,48,63,1.22,2.71,['20 Oct 2020 12:23:44']
576,3445307,Vera Cruz,BR,-12.63,-41.03,304.7,32.0,89.0,38,65,3.31,7.36,['20 Oct 2020 12:23:44']
577,1819729,Hong Kong,HK,22.29,114.16,294.71,22.0,71.0,68,23,0.89,1.98,['20 Oct 2020 12:23:44']
578,148987,Vikindu,TZ,-7.01,39.3,301.15,28.0,82.0,65,20,5.1,11.33,['20 Oct 2020 12:23:44']
579,3445026,Vila Velha,BR,-20.33,-40.29,297.31,24.0,75.0,88,90,2.1,4.67,['20 Oct 2020 12:23:44']
580,3832791,Villa Carlos Paz,AR,-31.42,-64.5,288.22,15.0,59.0,96,100,0.89,1.98,['20 Oct 2020 12:23:44']
581,3187681,Višegrad,BA,43.78,19.3,281.15,8.0,46.0,65,0,2.1,4.67,['20 Oct 2020 12:23:44']
582,470762,Vyartsilya,RU,62.18,30.69,272.74,-1.0,31.0,96,82,2.58,5.73,['20 Oct 2020 12:23:44']
583,2209055,Waddān,LY,29.16,16.14,296.53,23.0,74.0,39,6,4.64,10.31,['20 Oct 2020 12:23:44']
584,178443,Wajir,KE,1.75,40.06,308.15,35.0,95.0,34,20,5.88,13.07,['20 Oct 2020 12:23:44']
585,3359638,Walvis Bay,NA,-22.96,14.51,289.82,17.0,62.0,79,0,0.45,1.0,['20 Oct 2020 12:23:44']
586,1162634,Wana,PK,32.3,69.57,288.57,16.0,60.0,26,0,0.75,1.67,['20 Oct 2020 12:23:44']
587,1791779,Wanning,CN,18.8,110.4,296.29,23.0,74.0,85,93,5.57,12.38,['20 Oct 2020 12:23:44']
588,3352263,Warmbad,NA,-28.45,18.73,295.27,22.0,72.0,18,0,4.5,10.0,['20 Oct 2020 12:23:44']
589,2319133,Warri,NG,5.52,5.75,299.73,27.0,80.0,85,100,2.74,6.09,['20 Oct 2020 12:23:44']
590,2810284,Westerland,DE,54.91,8.3,284.15,11.0,52.0,87,75,7.2,16.0,['20 Oct 2020 12:23:44']
591,4955336,Weymouth,US,42.22,-70.94,290.62,17.0,63.0,82,75,5.7,12.67,['20 Oct 2020 12:23:44']
592,5321473,Winslow,US,35.02,-110.7,286.15,13.0,55.0,20,1,2.6,5.78,['20 Oct 2020 12:23:44']
593,2221053,Wum,CM,6.38,10.07,293.27,20.0,68.0,95,68,0.68,1.51,['20 Oct 2020 12:23:44']
594,49747,Oddur,SO,4.12,43.89,298.73,26.0,78.0,69,99,3.48,7.73,['20 Oct 2020 12:23:44']
595,1252783,Yārāda,IN,17.65,83.27,301.15,28.0,82.0,94,40,1.0,2.22,['20 Oct 2020 12:23:44']
596,2318123,Yenagoa,NG,4.92,6.26,299.94,27.0,80.0,81,93,2.96,6.58,['20 Oct 2020 12:23:44']
597,2220853,Yokadouma,CM,3.52,15.05,296.35,23.0,74.0,84,23,0.59,1.31,['20 Oct 2020 12:23:44']
598,6355222,Yulara,AU,-25.24,130.99,295.15,22.0,72.0,56,0,3.6,8.0,['20 Oct 2020 12:23:44']
599,2317982,Yuli,NG,9.7,10.27,301.9,29.0,84.0,47,40,1.67,3.71,['20 Oct 2020 12:23:44']
600,464790,Zapolyarnyy,RU,69.42,30.81,274.15,1.0,34.0,98,90,5.1,11.33,['20 Oct 2020 12:23:44']
601,1485020,Znamenskoye,RU,57.13,73.83,280.85,8.0,46.0,86,100,4.0,8.89,['20 Oct 2020 12:23:44']
